{"geometry":{"location":{"lat":8.3247652,"lng":80.4139682},"viewport":{"northeast":{"lat":8.325981129892721,"lng":80.41546257989273},"southwest":{"lat":8.323281470107277,"lng":80.41276292010728}}},"name":"Anuradhapura","place_id":"ChIJJ5uKswH1_DoR9ULwX2EK6PI","addressComponents":[{"long_name":"Harischandra Mawatha","short_name":"Harischandra Mawatha","types":["route"]},{"long_name":"New Town","short_name":"New Town","types":["sublocality_level_1","sublocality","political"]},{"long_name":"Anuradhapura","short_name":"Anuradhapura","types":["locality","political"]},{"long_name":"Anuradhapura","short_name":"Anuradhapura","types":["administrative_area_level_2","political"]},{"long_name":"North Central Province","short_name":"NC","types":["administrative_area_level_1","political"]},{"long_name":"Sri Lanka","short_name":"LK","types":["country","political"]}],"type1":"Hospital","type2":"Teaching","ownership":"L","rdhs":"AN","sn":3,"field4":3,"check":4,"hin":"LAN0000034"}
{"geometry":{"location":{"lat":8.3259425,"lng":80.4105696},"viewport":{"northeast":{"lat":8.327338429892723,"lng":80.41186522989273},"southwest":{"lat":8.32463877010728,"lng":80.40916557010728}}},"name":"NTS Anuradhapura","place_id":"ChIJpYq6dwD1_DoR7JaxUxib7hY","addressComponents":[{"long_name":"Anuradhapura","short_name":"Anuradhapura","types":["locality","political"]},{"long_name":"Anuradhapura","short_name":"Anuradhapura","types":["administrative_area_level_2","political"]},{"long_name":"North Central Province","short_name":"NC","types":["administrative_area_level_1","political"]},{"long_name":"Sri Lanka","short_name":"LK","types":["country","political"]}],"type1":"Training","type2":"NTS","ownership":"L","rdhs":"AN","sn":4,"field4":4,"check":2,"hin":"LAN0000042"}
{"geometry":{"location":{"lat":7.298334000000001,"lng":81.69084099999999},"viewport":{"northeast":{"lat":7.299631629892723,"lng":81.69224157989271},"southwest":{"lat":7.296931970107279,"lng":81.68954192010727}}},"name":"Ampara","place_id":"ChIJY7JsjN8Z5ToRjYWVgpXqTpU","addressComponents":[{"long_name":"Dharmapala Mawatha","short_name":"Dharmapala Mawatha","types":["route"]},{"long_name":"Ampara","short_name":"Ampara","types":["locality","political"]},{"long_name":"Ampara","short_name":"Ampara","types":["administrative_area_level_2","political"]},{"long_name":"Eastern Province","short_name":"EP","types":["administrative_area_level_1","political"]},{"long_name":"Sri Lanka","short_name":"LK","types":["country","political"]}],"type1":"Hospital","type2":"District General","ownership":"L","rdhs":"AP","sn":5,"field4":5,"check":9,"hin":"LAP0000059"}
{"geometry":{"location":{"lat":7.301577300000001,"lng":81.69140139999999},"viewport":{"northeast":{"lat":7.303035029892722,"lng":81.69286797989271},"southwest":{"lat":7.300335370107279,"lng":81.69016832010726}}},"name":"NTS Ampara","place_id":"ChIJ_YUBhCoX5ToRlC753igrLvk","addressComponents":[{"long_name":"Nursing Training School","short_name":"Nursing Training School","types":["premise"]},{"long_name":"Ampara","short_name":"Ampara","types":["locality","political"]},{"long_name":"Ampara","short_name":"Ampara","types":["administrative_area_level_2","political"]},{"long_name":"Eastern Province","short_name":"EP","types":["administrative_area_level_1","political"]},{"long_name":"Sri Lanka","short_name":"LK","types":["country","political"]}],"type1":"Training","type2":"NTS","ownership":"L","rdhs":"AP","sn":6,"field4":6,"check":7,"hin":"LAP0000067"}
{"geometry":{"location":{"lat":7.708032299999998,"lng":81.6906221},"viewport":{"northeast":{"lat":7.70945577989272,"lng":81.69191077989272},"southwest":{"lat":7.706756120107277,"lng":81.68921112010727}}},"name":"Batticoloa","place_id":"ChIJvzc8YqrS-joRMJsdBg10SlE","addressComponents":[{"long_name":"Hospital Lane","short_name":"Hospital Ln","types":["route"]},{"long_name":"Puliyanthivu","short_name":"Puliyanthivu","types":["sublocality_level_1","sublocality","political"]},{"long_name":"Batticaloa","short_name":"Batticaloa","types":["locality","political"]},{"long_name":"Batticaloa","short_name":"Batticaloa","types":["administrative_area_level_2","political"]},{"long_name":"Eastern Province","short_name":"EP","types":["administrative_area_level_1","political"]},{"long_name":"Sri Lanka","short_name":"LK","types":["country","political"]},{"long_name":"30000","short_name":"30000","types":["postal_code"]}],"type1":"Hospital","type2":"Teaching","ownership":"L","rdhs":"BC","sn":7,"field4":7,"check":5,"hin":"LBC0000075"}
{"geometry":{"location":{"lat":6.993368599999999,"lng":81.05504789999999},"viewport":{"northeast":{"lat":6.994714679892722,"lng":81.05640122989271},"southwest":{"lat":6.992015020107278,"lng":81.05370157010728}}},"name":"Badulla","place_id":"ChIJZyAQFxNi5DoRs8rLIEOnU5U","addressComponents":[{"long_name":"X3V4+82V","short_name":"X3V4+82V","types":["plus_code"]},{"long_name":"Badulla","short_name":"Badulla","types":["locality","political"]},{"long_name":"Badulla","short_name":"Badulla","types":["administrative_area_level_2","political"]},{"long_name":"Uva Province","short_name":"UP","types":["administrative_area_level_1","political"]},{"long_name":"Sri Lanka","short_name":"LK","types":["country","political"]}],"type1":"Hospital","type2":"Provincial General","ownership":"L","rdhs":"BD","sn":8,"field4":8,"check":3,"hin":"LBD0000083"}
{"geometry":{"location":{"lat":6.9903102,"lng":81.0524605},"viewport":{"northeast":{"lat":6.991827829892721,"lng":81.05374992989272},"southwest":{"lat":6.989128170107278,"lng":81.05105027010727}}},"name":"NTS Badulla","place_id":"ChIJs9K-OGti5DoRZDw_dAwcGW0","addressComponents":[{"long_name":"Bandarawela Road","short_name":"PBC Highway","types":["route"]},{"long_name":"Badulla","short_name":"Badulla","types":["locality","political"]},{"long_name":"Badulla","short_name":"Badulla","types":["administrative_area_level_2","political"]},{"long_name":"Uva Province","short_name":"UP","types":["administrative_area_level_1","political"]},{"long_name":"Sri Lanka","short_name":"LK","types":["country","political"]}],"type1":"Training","type2":"NTS","ownership":"L","rdhs":"BD","sn":9,"field4":9,"check":1,"hin":"LBD0000091"}
{"geometry":{"location":{"lat":6.920978499999999,"lng":79.864946},"viewport":{"northeast":{"lat":6.922261329892722,"lng":79.86604487989273},"southwest":{"lat":6.919561670107278,"lng":79.86334522010729}}},"name":"Medical Supplies Division","place_id":"ChIJUyA7Pg1Z4joRCTrlDUfk1As","addressComponents":[{"long_name":"357","short_name":"357","types":["street_number"]},{"long_name":"Ven Baddegama Wimalawansa Mawatha","short_name":"Ven Baddegama Wimalawansa Mawatha","types":["route"]},{"long_name":"Colombo 10","short_name":"Colombo 10","types":["sublocality_level_1","sublocality","political"]},{"long_name":"Colombo","short_name":"Colombo","types":["locality","political"]},{"long_name":"Colombo","short_name":"Colombo","types":["administrative_area_level_2","political"]},{"long_name":"Western Province","short_name":"WP","types":["administrative_area_level_1","political"]},{"long_name":"Sri Lanka","short_name":"LK","types":["country","political"]},{"long_name":"01000","short_name":"01000","types":["postal_code"]}],"type1":"Administration","type2":"Medical Supplies","ownership":"L","rdhs":"CB","sn":10,"field4":10,"check":9,"hin":"LCB0000109"}
{"geometry":{"location":{"lat":6.9225508,"lng":79.9182154},"viewport":{"northeast":{"lat":6.923828729892722,"lng":79.91961042989273},"southwest":{"lat":6.921129070107278,"lng":79.91691077010728}}},"name":"Infectious Diseases Hospital, Angoda","place_id":"ChIJG4zFtd9Z4joR15YT_9pfWGY","addressComponents":[{"long_name":"Mandavila Road","short_name":"Mandavila Rd","types":["route"]},{"long_name":"Angoda","short_name":"Angoda","types":["locality","political"]},{"long_name":"Colombo","short_name":"Colombo","types":["administrative_area_level_2","political"]},{"long_name":"Western Province","short_name":"WP","types":["administrative_area_level_1","political"]},{"long_name":"Sri Lanka","short_name":"LK","types":["country","political"]}],"type1":"Hospital","type2":"Base A","ownership":"L","rdhs":"CB","sn":11,"field4":11,"check":7,"hin":"LCB0000117"}
{"geometry":{"location":{"lat":6.924892799999999,"lng":79.9429138},"viewport":{"northeast":{"lat":6.926319229892722,"lng":79.94415517989273},"southwest":{"lat":6.923619570107278,"lng":79.94145552010728}}},"name":"Mulleriyawa","place_id":"ChIJfS1klRRX4joRMGOEFwf56ic","addressComponents":[{"long_name":"WWFV+X53","short_name":"WWFV+X53","types":["plus_code"]},{"long_name":"Colombo","short_name":"Colombo","types":["locality","political"]},{"long_name":"Colombo","short_name":"Colombo","types":["administrative_area_level_2","political"]},{"long_name":"Western Province","short_name":"WP","types":["administrative_area_level_1","political"]},{"long_name":"Sri Lanka","short_name":"LK","types":["country","political"]}],"type1":"Hospital","type2":"Base B","ownership":"L","rdhs":"CB","sn":12,"field4":12,"check":5,"hin":"LCB0000125"}
{"geometry":{"location":{"lat":6.9324338,"lng":79.8715711},"viewport":{"northeast":{"lat":6.933682579892722,"lng":79.87303837989272},"southwest":{"lat":6.930982920107278,"lng":79.87033872010728}}},"name":"The National Institute for Nephrology Dialysis & Transplantation","place_id":"ChIJY9HQEQZZ4joRDE4RYIb-yS4","addressComponents":[{"long_name":"349","short_name":"349","types":["street_number"]},{"long_name":"Jayantha Weerasekara Mawatha","short_name":"Jayantha Weerasekara Mawatha","types":["route"]},{"long_name":"Colombo 10","short_name":"Colombo 10","types":["sublocality_level_1","sublocality","political"]},{"long_name":"Colombo","short_name":"Colombo","types":["locality","political"]},{"long_name":"Colombo","short_name":"Colombo","types":["administrative_area_level_2","political"]},{"long_name":"Western Province","short_name":"WP","types":["administrative_area_level_1","political"]},{"long_name":"Sri Lanka","short_name":"LK","types":["country","political"]},{"long_name":"01000","short_name":"01000","types":["postal_code"]}],"type1":"Hospital","type2":"Nephrology","ownership":"L","rdhs":"CB","sn":15,"field4":15,"check":8,"hin":"LCB0000158"}
{"geometry":{"location":{"lat":6.8587469,"lng":80.064364},"viewport":{"northeast":{"lat":6.860005079892722,"lng":80.06572117989272},"southwest":{"lat":6.857305420107278,"lng":80.06302152010727}}},"name":"Prison Hospital, Watareka","place_id":"ChIJq67wM_1S4joRTuOIpox3EOE","addressComponents":[{"long_name":"V357+FPX","short_name":"V357+FPX","types":["plus_code"]},{"long_name":"Watareka","short_name":"Watareka","types":["locality","political"]},{"long_name":"Colombo","short_name":"Colombo","types":["administrative_area_level_2","political"]},{"long_name":"Western Province","short_name":"WP","types":["administrative_area_level_1","political"]},{"long_name":"Sri Lanka","short_name":"LK","types":["country","political"]}],"type1":"Hospital","type2":"Prison","ownership":"L","rdhs":"CB","sn":13,"field4":13,"check":3,"hin":"LCB0000133"}
{"geometry":{"location":{"lat":6.9209641,"lng":79.8779369},"viewport":{"northeast":{"lat":6.922315879892721,"lng":79.87922832989273},"southwest":{"lat":6.919616220107277,"lng":79.87652867010728}}},"name":"Prison Hospital, Welikada","place_id":"ChIJzfrAj6FZ4joRGMf0ctLi_v0","addressComponents":[{"long_name":"Doctor Danister De Silva Mawatha","short_name":"Dr Danister De Silva Mawatha","types":["route"]},{"long_name":"Colombo 08","short_name":"Colombo 08","types":["sublocality_level_1","sublocality","political"]},{"long_name":"Colombo","short_name":"Colombo","types":["locality","political"]},{"long_name":"Colombo","short_name":"Colombo","types":["administrative_area_level_2","political"]},{"long_name":"Western Province","short_name":"WP","types":["administrative_area_level_1","political"]},{"long_name":"Sri Lanka","short_name":"LK","types":["country","political"]},{"long_name":"01000","short_name":"01000","types":["postal_code"]}],"type1":"Hospital","type2":"Prison","ownership":"L","rdhs":"CB","sn":1721,"field4":1721,"check":0,"hin":"LCB0017210"}
{"geometry":{"location":{"lat":6.8372443,"lng":79.9203196},"viewport":{"northeast":{"lat":6.838594129892723,"lng":79.92166942989273},"southwest":{"lat":6.835894470107279,"lng":79.91896977010728}}},"name":"Apeksha Hospital, Maharagama","place_id":"ChIJI5bpRnVQ4joRm9SkZx5-T4g","addressComponents":[{"long_name":"RWPC+V4W","short_name":"RWPC+V4W","types":["plus_code"]},{"long_name":"Maharagama","short_name":"Maharagama","types":["locality","political"]},{"long_name":"Colombo","short_name":"Colombo","types":["administrative_area_level_2","political"]},{"long_name":"Western Province","short_name":"WP","types":["administrative_area_level_1","political"]},{"long_name":"Sri Lanka","short_name":"LK","types":["country","political"]},{"long_name":"10280","short_name":"10280","types":["postal_code"]}],"type1":"Hospital","type2":"Teaching","ownership":"L","rdhs":"CB","sn":20,"field4":20,"check":8,"hin":"LCB0000208"}
{"geometry":{"location":{"lat":6.9106412,"lng":79.8847681},"viewport":{"northeast":{"lat":6.912123779892721,"lng":79.88610112989272},"southwest":{"lat":6.909424120107277,"lng":79.88340147010729}}},"name":"Castle Street Hospital for Women","place_id":"ChIJNfUqs5pZ4joR309orDx1uLM","addressComponents":[{"long_name":"Castle Street","short_name":"Castle St","types":["route"]},{"long_name":"Colombo 08","short_name":"Colombo 08","types":["sublocality_level_1","sublocality","political"]},{"long_name":"Colombo","short_name":"Colombo","types":["locality","political"]},{"long_name":"Colombo","short_name":"Colombo","types":["administrative_area_level_2","political"]},{"long_name":"Western Province","short_name":"WP","types":["administrative_area_level_1","political"]},{"long_name":"Sri Lanka","short_name":"LK","types":["country","political"]},{"long_name":"00800","short_name":"00800","types":["postal_code"]}],"type1":"Hospital","type2":"Teaching","ownership":"L","rdhs":"CB","sn":16,"field4":16,"check":6,"hin":"LCB0000166"}
{"geometry":{"location":{"lat":6.867623,"lng":79.87635019999999},"viewport":{"northeast":{"lat":6.868543679892722,"lng":79.87794017989272},"southwest":{"lat":6.865844020107279,"lng":79.87524052010728}}},"name":"Colombo South (Kalubovila)","place_id":"ChIJA5snZU1a4joRigBd_nRHi0w","addressComponents":[{"long_name":"B229","short_name":"B229","types":["street_number"]},{"long_name":"Hospital Road","short_name":"Hospital Rd","types":["route"]},{"long_name":"Kalubowila","short_name":"Kalubowila","types":["sublocality_level_1","sublocality","political"]},{"long_name":"Dehiwala-Mount Lavinia","short_name":"Dehiwala-Mount Lavinia","types":["locality","political"]},{"long_name":"Colombo","short_name":"Colombo","types":["administrative_area_level_2","political"]},{"long_name":"Western Province","short_name":"WP","types":["administrative_area_level_1","political"]},{"long_name":"Sri Lanka","short_name":"LK","types":["country","political"]}],"type1":"Hospital","type2":"Teaching","ownership":"L","rdhs":"CB","sn":17,"field4":17,"check":4,"hin":"LCB0000174"}
{"geometry":{"location":{"lat":6.9199812,"lng":79.8705461},"viewport":{"northeast":{"lat":6.921234079892722,"lng":79.87209334999999},"southwest":{"lat":6.918534420107278,"lng":79.86921675}}},"name":"De Soysa Hospital for Women","place_id":"ChIJ5RZxNAtZ4joR186Ccrmdpwk","addressComponents":[{"long_name":"Kynsey Road","short_name":"Kynsey Rd","types":["route"]},{"long_name":"Colombo 10","short_name":"Colombo 10","types":["sublocality_level_1","sublocality","political"]},{"long_name":"Colombo","short_name":"Colombo","types":["locality","political"]},{"long_name":"Colombo","short_name":"Colombo","types":["administrative_area_level_2","political"]},{"long_name":"Western Province","short_name":"WP","types":["administrative_area_level_1","political"]},{"long_name":"Sri Lanka","short_name":"LK","types":["country","political"]},{"long_name":"00800","short_name":"00800","types":["postal_code"]}],"type1":"Hospital","type2":"Teaching","ownership":"L","rdhs":"CB","sn":18,"field4":18,"check":2,"hin":"LCB0000182"}
{"geometry":{"location":{"lat":6.9177597,"lng":79.8758285},"viewport":{"northeast":{"lat":6.918946729892721,"lng":79.87694077989272},"southwest":{"lat":6.916247070107278,"lng":79.87424112010729}}},"name":"Lady Ridgeway","place_id":"ChIJBRektp9Z4joR1D6pSk53wP0","addressComponents":[{"long_name":"Doctor Danister De Silva Mawatha","short_name":"Dr Danister De Silva Mawatha","types":["route"]},{"long_name":"Colombo 08","short_name":"Colombo 08","types":["sublocality_level_1","sublocality","political"]},{"long_name":"Colombo","short_name":"Colombo","types":["locality","political"]},{"long_name":"Colombo","short_name":"Colombo","types":["administrative_area_level_2","political"]},{"long_name":"Western Province","short_name":"WP","types":["administrative_area_level_1","political"]},{"long_name":"Sri Lanka","short_name":"LK","types":["country","political"]},{"long_name":"00800","short_name":"00800","types":["postal_code"]}],"type1":"Hospital","type2":"Teaching","ownership":"L","rdhs":"CB","sn":21,"field4":21,"check":6,"hin":"LCB0000216"}
{"geometry":{"location":{"lat":6.917315599999999,"lng":79.8661101},"viewport":{"northeast":{"lat":6.918535629892721,"lng":79.86743322989273},"southwest":{"lat":6.915835970107278,"lng":79.86473357010729}}},"name":"National Dental Hospital","place_id":"ChIJycPQAXNZ4joRAhZfN906wc8","addressComponents":[{"long_name":"16","short_name":"16","types":["street_number"]},{"long_name":"Ward Place","short_name":"Ward Pl","types":["route"]},{"long_name":"Colombo 10","short_name":"Colombo 10","types":["sublocality_level_1","sublocality","political"]},{"long_name":"Colombo","short_name":"Colombo","types":["locality","political"]},{"long_name":"Colombo","short_name":"Colombo","types":["administrative_area_level_2","political"]},{"long_name":"Western Province","short_name":"WP","types":["administrative_area_level_1","political"]},{"long_name":"Sri Lanka","short_name":"LK","types":["country","political"]},{"long_name":"00700","short_name":"00700","types":["postal_code"]}],"type1":"Hospital","type2":"Teaching","ownership":"L","rdhs":"CB","sn":22,"field4":22,"check":4,"hin":"LCB0000224"}
{"geometry":{"location":{"lat":6.918577,"lng":79.86519799999999},"viewport":{"northeast":{"lat":6.919994879892722,"lng":79.86664047989272},"southwest":{"lat":6.917295220107278,"lng":79.86394082010727}}},"name":"National Eye Hospital","place_id":"ChIJVehFw3JZ4joR_NAVhxD8XKc","addressComponents":[{"long_name":"Eye Hospital","short_name":"Eye Hospital","types":["premise"]},{"long_name":"WV97+HX4","short_name":"WV97+HX4","types":["plus_code"]},{"long_name":"Ven Baddegama Wimalawansa Mawatha","short_name":"Ven Baddegama Wimalawansa Mawatha","types":["route"]},{"long_name":"Colombo 10","short_name":"Colombo 10","types":["sublocality_level_1","sublocality","political"]},{"long_name":"Colombo","short_name":"Colombo","types":["locality","political"]},{"long_name":"Colombo","short_name":"Colombo","types":["administrative_area_level_2","political"]},{"long_name":"Western Province","short_name":"WP","types":["administrative_area_level_1","political"]},{"long_name":"Sri Lanka","short_name":"LK","types":["country","political"]},{"long_name":"01000","short_name":"01000","types":["postal_code"]}],"type1":"Hospital","type2":"Teaching","ownership":"L","rdhs":"CB","sn":19,"field4":19,"check":0,"hin":"LCB0000190"}
{"geometry":{"location":{"lat":6.9187429,"lng":79.86899199999999},"viewport":{"northeast":{"lat":6.923231599999998,"lng":79.87599315},"southwest":{"lat":6.915603600000001,"lng":79.86103255000002}}},"name":"National Hospital of Sri Lanka","place_id":"ChIJg7wru3RZ4joRKPRVduTotu4","addressComponents":[{"long_name":"WV99+FHX","short_name":"WV99+FHX","types":["plus_code"]},{"long_name":"Colombo 10","short_name":"Colombo 10","types":["sublocality_level_1","sublocality","political"]},{"long_name":"Colombo","short_name":"Colombo","types":["locality","political"]},{"long_name":"Colombo","short_name":"Colombo","types":["administrative_area_level_2","political"]},{"long_name":"Western Province","short_name":"WP","types":["administrative_area_level_1","political"]},{"long_name":"Sri Lanka","short_name":"LK","types":["country","political"]},{"long_name":"00700","short_name":"00700","types":["postal_code"]}],"type1":"Hospital","type2":"Teaching","ownership":"L","rdhs":"CB","sn":1,"field4":1,"check":8,"hin":"LCB0000018"}
{"geometry":{"location":{"lat":6.926896699999999,"lng":79.9262961},"viewport":{"northeast":{"lat":6.928076629892722,"lng":79.92825972989272},"southwest":{"lat":6.925376970107278,"lng":79.92556007010728}}},"name":"National Institute for Mental Health, Angoda","place_id":"ChIJ_esvoGZX4joRnv8xVcOgaFs","addressComponents":[{"long_name":"B231","short_name":"B231","types":["route"]},{"long_name":"Angoda","short_name":"Angoda","types":["locality","political"]},{"long_name":"Colombo","short_name":"Colombo","types":["administrative_area_level_2","political"]},{"long_name":"Western Province","short_name":"WP","types":["administrative_area_level_1","political"]},{"long_name":"Sri Lanka","short_name":"LK","types":["country","political"]}],"type1":"Hospital","type2":"Teaching","ownership":"L","rdhs":"CB","sn":23,"field4":23,"check":2,"hin":"LCB0000232"}
{"geometry":{"location":{"lat":6.868545999999999,"lng":79.9254988},"viewport":{"northeast":{"lat":6.869926979892721,"lng":79.92727717989271},"southwest":{"lat":6.867227320107277,"lng":79.92457752010728}}},"name":"Sri Jayawardenepura","place_id":"ChIJrR8frYRQ4joRn85uTxUR6vs","addressComponents":[{"long_name":"රෝහල පාර","short_name":"රෝහල පාර","types":["route"]},{"long_name":"Sri Jayawardenepura Kotte","short_name":"Sri Jayawardenepura Kotte","types":["locality","political"]},{"long_name":"Colombo","short_name":"Colombo","types":["administrative_area_level_2","political"]},{"long_name":"Western Province","short_name":"WP","types":["administrative_area_level_1","political"]},{"long_name":"Sri Lanka","short_name":"LK","types":["country","political"]}],"type1":"Hospital","type2":"Teaching","ownership":"L","rdhs":"CB","sn":24,"field4":24,"check":0,"hin":"LCB0000240"}
{"geometry":{"location":{"lat":6.919497000000001,"lng":79.8652961},"viewport":{"northeast":{"lat":6.920770979892723,"lng":79.86668902989271},"southwest":{"lat":6.918071320107279,"lng":79.86398937010728}}},"name":"Bio Medical Engineering Services","place_id":"ChIJu3BzzXJZ4joRsZqal8peNx0","addressComponents":[{"long_name":"27","short_name":"27","types":["street_number"]},{"long_name":"De Saram Place","short_name":"De Saram Pl","types":["route"]},{"long_name":"Colombo 10","short_name":"Colombo 10","types":["sublocality_level_1","sublocality","political"]},{"long_name":"Colombo","short_name":"Colombo","types":["locality","political"]},{"long_name":"Colombo","short_name":"Colombo","types":["administrative_area_level_2","political"]},{"long_name":"Western Province","short_name":"WP","types":["administrative_area_level_1","political"]},{"long_name":"Sri Lanka","short_name":"LK","types":["country","political"]},{"long_name":"01000","short_name":"01000","types":["postal_code"]}],"type1":"Other","type2":"Engineering","ownership":"L","rdhs":"CB","sn":26,"field4":26,"check":5,"hin":"LCB0000265"}
{"geometry":{"location":{"lat":6.9318683,"lng":79.86115889999999},"viewport":{"northeast":{"lat":6.933494979892721,"lng":79.86247392989272},"southwest":{"lat":6.930795320107277,"lng":79.85977427010728}}},"name":"Food Quality Control Administration Unit","place_id":"ChIJ5SL9ID9Z4joRmhWV00PBQNo","addressComponents":[{"long_name":"Medi House Building","short_name":"Medi House Building","types":["point_of_interest","establishment"]},{"long_name":"26","short_name":"26","types":["street_number"]},{"long_name":"Sri Sangaraja Mawatha","short_name":"Sri Sangaraja Mawatha","types":["route"]},{"long_name":"Colombo 10","short_name":"Colombo 10","types":["sublocality_level_1","sublocality","political"]},{"long_name":"Colombo","short_name":"Colombo","types":["locality","political"]},{"long_name":"Colombo","short_name":"Colombo","types":["administrative_area_level_2","political"]},{"long_name":"Western Province","short_name":"WP","types":["administrative_area_level_1","political"]},{"long_name":"Sri Lanka","short_name":"LK","types":["country","political"]},{"long_name":"01000","short_name":"01000","types":["postal_code"]}],"type1":"Other","type2":"Food and Nutrition","ownership":"L","rdhs":"CB","sn":27,"field4":27,"check":3,"hin":"LCB0000273"}
{"geometry":{"location":{"lat":6.8908502,"lng":79.8774147},"viewport":{"northeast":{"lat":6.892203629892722,"lng":79.87857652989273},"southwest":{"lat":6.889503970107278,"lng":79.87587687010728}}},"name":"Nutrition Co-ordination Division","place_id":"ChIJSRXSH95b4joROL-HgPSUkLo","addressComponents":[{"long_name":"Public Health Complex, Ministry of Health, Sri Lanka","short_name":"Public Health Complex, Ministry of Health, Sri Lanka","types":["premise"]},{"long_name":"555/5","short_name":"555/5","types":["street_number"]},{"long_name":"Elvitigala Mawatha","short_name":"Elvitigala Mawatha","types":["route"]},{"long_name":"Colombo 05","short_name":"Colombo 05","types":["sublocality_level_1","sublocality","political"]},{"long_name":"Colombo","short_name":"Colombo","types":["locality","political"]},{"long_name":"Colombo","short_name":"Colombo","types":["administrative_area_level_2","political"]},{"long_name":"Western Province","short_name":"WP","types":["administrative_area_level_1","political"]},{"long_name":"Sri Lanka","short_name":"LK","types":["country","political"]},{"long_name":"00500","short_name":"00500","types":["postal_code"]}],"type1":"Other","type2":"Food and Nutrition","ownership":"L","rdhs":"CB","sn":36,"field4":36,"check":4,"hin":"LCB0000364"}
{"geometry":{"location":{"lat":6.8908502,"lng":79.8774147},"viewport":{"northeast":{"lat":6.892203629892722,"lng":79.87857652989273},"southwest":{"lat":6.889503970107278,"lng":79.87587687010728}}},"name":"Nutrition Division","place_id":"ChIJSRXSH95b4joROL-HgPSUkLo","addressComponents":[{"long_name":"Public Health Complex, Ministry of Health, Sri Lanka","short_name":"Public Health Complex, Ministry of Health, Sri Lanka","types":["premise"]},{"long_name":"555/5","short_name":"555/5","types":["street_number"]},{"long_name":"Elvitigala Mawatha","short_name":"Elvitigala Mawatha","types":["route"]},{"long_name":"Colombo 05","short_name":"Colombo 05","types":["sublocality_level_1","sublocality","political"]},{"long_name":"Colombo","short_name":"Colombo","types":["locality","political"]},{"long_name":"Colombo","short_name":"Colombo","types":["administrative_area_level_2","political"]},{"long_name":"Western Province","short_name":"WP","types":["administrative_area_level_1","political"]},{"long_name":"Sri Lanka","short_name":"LK","types":["country","political"]},{"long_name":"00500","short_name":"00500","types":["postal_code"]}],"type1":"Other","type2":"Food and Nutrition","ownership":"L","rdhs":"CB","sn":37,"field4":37,"check":2,"hin":"LCB0000372"}
{"geometry":{"location":{"lat":6.920089099999999,"lng":79.8651153},"viewport":{"northeast":{"lat":6.921212779892721,"lng":79.8662333798927},"southwest":{"lat":6.918513120107277,"lng":79.86353372010727}}},"name":"Ministry & Department of Health - Head Office","place_id":"ChIJtc5PMQ1Z4joR4IHpjvLJ2kI","addressComponents":[{"long_name":"Ministry of Health, 385, Ven. Baddegama Wimalawansa Thero Mawatha, Colombo 10.","short_name":"Ministry of Health, 385, Ven. Baddegama Wimalawansa Thero Mawatha, Colombo 10.","types":["street_number"]},{"long_name":"Ven Baddegama Wimalawansa Mawatha","short_name":"Ven Baddegama Wimalawansa Mawatha","types":["route"]},{"long_name":"Colombo 10","short_name":"Colombo 10","types":["sublocality_level_1","sublocality","political"]},{"long_name":"Colombo","short_name":"Colombo","types":["locality","political"]},{"long_name":"Colombo","short_name":"Colombo","types":["administrative_area_level_2","political"]},{"long_name":"Western Province","short_name":"WP","types":["administrative_area_level_1","political"]},{"long_name":"Sri Lanka","short_name":"LK","types":["country","political"]},{"long_name":"01000","short_name":"01000","types":["postal_code"]}],"type1":"Other","type2":"Head Office","ownership":"L","rdhs":"CB","sn":33,"field4":33,"check":1,"hin":"LCB0000331"}
{"geometry":{"location":{"lat":6.926896699999999,"lng":79.9262961},"viewport":{"northeast":{"lat":6.928076629892722,"lng":79.92825972989272},"southwest":{"lat":6.925376970107278,"lng":79.92556007010728}}},"name":"Mental Health Unit, Head Office ","place_id":"ChIJ_esvoGZX4joRnv8xVcOgaFs","addressComponents":[{"long_name":"B231","short_name":"B231","types":["route"]},{"long_name":"Angoda","short_name":"Angoda","types":["locality","political"]},{"long_name":"Colombo","short_name":"Colombo","types":["administrative_area_level_2","political"]},{"long_name":"Western Province","short_name":"WP","types":["administrative_area_level_1","political"]},{"long_name":"Sri Lanka","short_name":"LK","types":["country","political"]}],"type1":"Other","type2":"Mental","ownership":"L","rdhs":"CB","sn":32,"field4":32,"check":3,"hin":"LCB0000323"}
{"geometry":{"location":{"lat":6.9219008,"lng":79.8684243},"viewport":{"northeast":{"lat":6.923288929892721,"lng":79.86985122989272},"southwest":{"lat":6.920589270107278,"lng":79.86715157010728}}},"name":"Health Education Bureau","place_id":"ChIJu826hwxZ4joRv4XKi9D_tGI","addressComponents":[{"long_name":"02","short_name":"02","types":["street_number"]},{"long_name":"Kynsey Road","short_name":"Kynsey Rd","types":["route"]},{"long_name":"Colombo 08","short_name":"Colombo 08","types":["sublocality_level_1","sublocality","political"]},{"long_name":"Colombo","short_name":"Colombo","types":["locality","political"]},{"long_name":"Colombo","short_name":"Colombo","types":["administrative_area_level_2","political"]},{"long_name":"Western Province","short_name":"WP","types":["administrative_area_level_1","political"]},{"long_name":"Sri Lanka","short_name":"LK","types":["country","political"]},{"long_name":"01000","short_name":"01000","types":["postal_code"]}],"type1":"Other","type2":"Other","ownership":"L","rdhs":"CB","sn":28,"field4":28,"check":1,"hin":"LCB0000281"}
{"geometry":{"location":{"lat":6.9195885,"lng":79.8718014},"viewport":{"northeast":{"lat":6.920871129892721,"lng":79.8730781298927},"southwest":{"lat":6.918171470107278,"lng":79.87037847010727}}},"name":"Institute of Legal Medicine and Toxiology","place_id":"ChIJGeYkKnVZ4joRmKrzoKY5dlQ","addressComponents":[{"long_name":"Francis Place","short_name":"Francis Place","types":["route"]},{"long_name":"Colombo 10","short_name":"Colombo 10","types":["sublocality_level_1","sublocality","political"]},{"long_name":"Colombo","short_name":"Colombo","types":["locality","political"]},{"long_name":"Colombo","short_name":"Colombo","types":["administrative_area_level_2","political"]},{"long_name":"Western Province","short_name":"WP","types":["administrative_area_level_1","political"]},{"long_name":"Sri Lanka","short_name":"LK","types":["country","political"]},{"long_name":"01000","short_name":"01000","types":["postal_code"]}],"type1":"Other","type2":"Other","ownership":"L","rdhs":"CB","sn":29,"field4":29,"check":9,"hin":"LCB0000299"}
{"geometry":{"location":{"lat":6.9177148,"lng":79.8784687},"viewport":{"northeast":{"lat":6.918980879892722,"lng":79.87945052989272},"southwest":{"lat":6.916281220107278,"lng":79.87675087010727}}},"name":"Medical Research Institute","place_id":"ChIJi_oXH59Z4joRkh5343tGO_U","addressComponents":[{"long_name":"WV9H+39P","short_name":"WV9H+39P","types":["plus_code"]},{"long_name":"Colombo 08","short_name":"Colombo 08","types":["sublocality_level_1","sublocality","political"]},{"long_name":"Colombo","short_name":"Colombo","types":["locality","political"]},{"long_name":"Colombo","short_name":"Colombo","types":["administrative_area_level_2","political"]},{"long_name":"Western Province","short_name":"WP","types":["administrative_area_level_1","political"]},{"long_name":"Sri Lanka","short_name":"LK","types":["country","political"]}],"type1":"Other","type2":"Other","ownership":"L","rdhs":"CB","sn":30,"field4":30,"check":7,"hin":"LCB0000307"}
{"geometry":{"location":{"lat":6.9046236,"lng":79.8969003},"viewport":{"northeast":{"lat":6.906016879892722,"lng":79.89826497989273},"southwest":{"lat":6.903317220107278,"lng":79.89556532010728}}},"name":"Medical Technology & Supplies","place_id":"ChIJObkHpfJZ4joR0z3a_bw-XkM","addressComponents":[{"long_name":"71/A","short_name":"71/A","types":["street_number"]},{"long_name":"Welikadawatta Road","short_name":"Welikadawatta Rd","types":["route"]},{"long_name":"Rajagiriya","short_name":"Rajagiriya","types":["sublocality_level_1","sublocality","political"]},{"long_name":"Sri Jayawardenepura Kotte","short_name":"Sri Jayawardenepura Kotte","types":["locality","political"]},{"long_name":"Colombo","short_name":"Colombo","types":["administrative_area_level_2","political"]},{"long_name":"Western Province","short_name":"WP","types":["administrative_area_level_1","political"]},{"long_name":"Sri Lanka","short_name":"LK","types":["country","political"]}],"type1":"Other","type2":"Other","ownership":"L","rdhs":"CB","sn":31,"field4":31,"check":5,"hin":"LCB0000315"}
{"geometry":{"location":{"lat":6.8912169,"lng":79.87739069999999},"viewport":{"northeast":{"lat":6.892611229892721,"lng":79.87856187989271},"southwest":{"lat":6.889911570107278,"lng":79.87586222010728}}},"name":"National Blood Transfusion Service","place_id":"ChIJR1YiPRBa4joRv_BmYIVZEu8","addressComponents":[{"long_name":"National Blood Transfusion Services","short_name":"National Blood Transfusion Services","types":["premise"]},{"long_name":"Elvitigala Mawatha","short_name":"Elvitigala Mawatha","types":["route"]},{"long_name":"Colombo 05","short_name":"Colombo 05","types":["sublocality_level_1","sublocality","political"]},{"long_name":"Colombo","short_name":"Colombo","types":["locality","political"]},{"long_name":"Colombo","short_name":"Colombo","types":["administrative_area_level_2","political"]},{"long_name":"Western Province","short_name":"WP","types":["administrative_area_level_1","political"]},{"long_name":"Sri Lanka","short_name":"LK","types":["country","political"]},{"long_name":"00500","short_name":"00500","types":["postal_code"]}],"type1":"Other","type2":"Other","ownership":"L","rdhs":"CB","sn":34,"field4":34,"check":9,"hin":"LCB0000349"}
{"geometry":{"location":{"lat":6.9200085,"lng":79.8661594},"viewport":{"northeast":{"lat":6.921376779892721,"lng":79.86755687989272},"southwest":{"lat":6.918677120107278,"lng":79.86485722010727}}},"name":"National Drug Quality Assurance Laboratory","place_id":"ChIJy5EGKg1Z4joRSco0u8xI-ks","addressComponents":[{"long_name":"Norris Canal Road","short_name":"Norris Canal Rd","types":["route"]},{"long_name":"Colombo 10","short_name":"Colombo 10","types":["sublocality_level_1","sublocality","political"]},{"long_name":"Colombo","short_name":"Colombo","types":["locality","political"]},{"long_name":"Colombo","short_name":"Colombo","types":["administrative_area_level_2","political"]},{"long_name":"Western Province","short_name":"WP","types":["administrative_area_level_1","political"]},{"long_name":"Sri Lanka","short_name":"LK","types":["country","political"]},{"long_name":"01000","short_name":"01000","types":["postal_code"]}],"type1":"Other","type2":"Other","ownership":"L","rdhs":"CB","sn":35,"field4":35,"check":6,"hin":"LCB0000356"}
{"geometry":{"location":{"lat":6.8330943,"lng":79.90558349999999},"viewport":{"northeast":{"lat":6.834535579892722,"lng":79.90704062989272},"southwest":{"lat":6.831835920107278,"lng":79.90434097010727}}},"name":"Office of the School Medical Officer","place_id":"ChIJlUfijqRa4joRXlJUCUEZrYk","addressComponents":[{"long_name":"RWM4+66P","short_name":"RWM4+66P","types":["plus_code"]},{"long_name":"Werahera","short_name":"Werahera","types":["sublocality_level_1","sublocality","political"]},{"long_name":"Boralesgamuwa","short_name":"Boralesgamuwa","types":["locality","political"]},{"long_name":"Colombo","short_name":"Colombo","types":["administrative_area_level_2","political"]},{"long_name":"Western Province","short_name":"WP","types":["administrative_area_level_1","political"]},{"long_name":"Sri Lanka","short_name":"LK","types":["country","political"]}],"type1":"Other","type2":"Other","ownership":"L","rdhs":"CB","sn":38,"field4":38,"check":0,"hin":"LCB0000380"}
{"geometry":{"location":{"lat":6.843000099999999,"lng":79.8656167},"viewport":{"northeast":{"lat":6.844402779892722,"lng":79.86696417989272},"southwest":{"lat":6.841703120107279,"lng":79.86426452010727}}},"name":"Public Health Veterinary Services","place_id":"ChIJ1Uuambxb4joRfsrYXp2rYJM","addressComponents":[{"long_name":"7","short_name":"7","types":["street_number"]},{"long_name":"Siripala Road","short_name":"Siripala Rd","types":["route"]},{"long_name":"Mount Lavinia","short_name":"Mount Lavinia","types":["sublocality_level_1","sublocality","political"]},{"long_name":"Dehiwala-Mount Lavinia","short_name":"Dehiwala-Mount Lavinia","types":["locality","political"]},{"long_name":"Colombo","short_name":"Colombo","types":["administrative_area_level_2","political"]},{"long_name":"Western Province","short_name":"WP","types":["administrative_area_level_1","political"]},{"long_name":"Sri Lanka","short_name":"LK","types":["country","political"]}],"type1":"Other","type2":"Other","ownership":"L","rdhs":"CB","sn":40,"field4":40,"check":6,"hin":"LCB0000406"}
{"geometry":{"location":{"lat":6.917789,"lng":79.8785872},"viewport":{"northeast":{"lat":6.919280079892721,"lng":79.87991877989272},"southwest":{"lat":6.916580420107278,"lng":79.87721912010727}}},"name":"Assistant Port Health Office at MRI","place_id":"ChIJR0bDIMBZ4joRo3upw6LTYSI","addressComponents":[{"long_name":"WV9H+4C8","short_name":"WV9H+4C8","types":["plus_code"]},{"long_name":"Colombo 08","short_name":"Colombo 08","types":["sublocality_level_1","sublocality","political"]},{"long_name":"Colombo","short_name":"Colombo","types":["locality","political"]},{"long_name":"Colombo","short_name":"Colombo","types":["administrative_area_level_2","political"]},{"long_name":"Western Province","short_name":"WP","types":["administrative_area_level_1","political"]},{"long_name":"Sri Lanka","short_name":"LK","types":["country","political"]}],"type1":"Other","type2":"Port","ownership":"L","rdhs":"CB","sn":25,"field4":25,"check":7,"hin":"LCB0000257"}
{"geometry":{"location":{"lat":6.940996600000001,"lng":79.8435403},"viewport":{"northeast":{"lat":6.942397629892723,"lng":79.84479772989273},"southwest":{"lat":6.939697970107279,"lng":79.84209807010728}}},"name":"Port Health Office, Colombo","place_id":"ChIJZ80afdhY4joRsHolmFq3kNM","addressComponents":[{"long_name":"Colombo","short_name":"Colombo","types":["locality","political"]},{"long_name":"Colombo 01","short_name":"Colombo 01","types":["sublocality_level_1","sublocality","political"]},{"long_name":"Colombo","short_name":"Colombo","types":["administrative_area_level_2","political"]},{"long_name":"Western Province","short_name":"WP","types":["administrative_area_level_1","political"]},{"long_name":"Sri Lanka","short_name":"LK","types":["country","political"]}],"type1":"Other","type2":"Port","ownership":"L","rdhs":"CB","sn":39,"field4":39,"check":8,"hin":"LCB0000398"}
{"geometry":{"location":{"lat":6.845515199999999,"lng":79.9285395},"viewport":{"northeast":{"lat":6.847015729892722,"lng":79.92998077989273},"southwest":{"lat":6.844316070107278,"lng":79.9272811201073}}},"name":"Institute of Oral Health, Maharagama","place_id":"ChIJfaNCQ3BQ4joROZbk0GPdYVE","addressComponents":[{"long_name":"Colombo - Batticaloa Highway","short_name":"Colombo - Batticaloa Hwy","types":["route"]},{"long_name":"Maharagama","short_name":"Maharagama","types":["locality","political"]},{"long_name":"Colombo","short_name":"Colombo","types":["administrative_area_level_2","political"]},{"long_name":"Western Province","short_name":"WP","types":["administrative_area_level_1","political"]},{"long_name":"Sri Lanka","short_name":"LK","types":["country","political"]},{"long_name":"10280","short_name":"10280","types":["postal_code"]}],"type1":"Other Clinics","type2":"Dental","ownership":"L","rdhs":"CB","sn":14,"field4":14,"check":1,"hin":"LCB0000141"}
{"geometry":{"location":{"lat":6.8908502,"lng":79.8774147},"viewport":{"northeast":{"lat":6.892203629892722,"lng":79.87857652989273},"southwest":{"lat":6.889503970107278,"lng":79.87587687010728}}},"name":"Anti Filariasis Campaign","place_id":"ChIJ15D_lldb4joRRLw1E-ui66w","addressComponents":[{"long_name":"555","short_name":"555","types":["street_number"]},{"long_name":"Elvitigala Mawatha","short_name":"Elvitigala Mawatha","types":["route"]},{"long_name":"Colombo 05","short_name":"Colombo 05","types":["sublocality_level_1","sublocality","political"]},{"long_name":"Colombo","short_name":"Colombo","types":["locality","political"]},{"long_name":"Colombo","short_name":"Colombo","types":["administrative_area_level_2","political"]},{"long_name":"Western Province","short_name":"WP","types":["administrative_area_level_1","political"]},{"long_name":"Sri Lanka","short_name":"LK","types":["country","political"]},{"long_name":"00500","short_name":"00500","types":["postal_code"]}],"type1":"Programme/Campaign","type2":"Anti Filariasis","ownership":"L","rdhs":"CB","sn":41,"field4":41,"check":4,"hin":"LCB0000414"}
{"geometry":{"location":{"lat":6.9825173,"lng":79.8775764},"viewport":{"northeast":{"lat":6.983665929892721,"lng":79.87880202989271},"southwest":{"lat":6.980966270107277,"lng":79.87610237010726}}},"name":"Anti Leprosy Campaign","place_id":"ChIJk_5mdH9Y4joR2-jW1nSYgB4","addressComponents":[{"long_name":"XVMH+224","short_name":"XVMH+224","types":["plus_code"]},{"long_name":"Hekitta","short_name":"Hekitta","types":["sublocality_level_1","sublocality","political"]},{"long_name":"Wattala","short_name":"Wattala","types":["locality","political"]},{"long_name":"Gampaha","short_name":"Gampaha","types":["administrative_area_level_2","political"]},{"long_name":"Western Province","short_name":"WP","types":["administrative_area_level_1","political"]},{"long_name":"Sri Lanka","short_name":"LK","types":["country","political"]}],"type1":"Programme/Campaign","type2":"Anti Leprosy ","ownership":"L","rdhs":"CB","sn":42,"field4":42,"check":2,"hin":"LCB0000422"}
{"geometry":{"location":{"lat":6.8908958,"lng":79.8773143},"viewport":{"northeast":{"lat":6.892088579892722,"lng":79.87852362989273},"southwest":{"lat":6.889388920107278,"lng":79.87582397010729}}},"name":"Anti Malaria Campaign","place_id":"ChIJAQDQqi1a4joRK7_xj6r9GR8","addressComponents":[{"long_name":"Public Health Complex, Ministry of Health, Sri Lanka","short_name":"Public Health Complex, Ministry of Health, Sri Lanka","types":["premise"]},{"long_name":"555/5","short_name":"555/5","types":["street_number"]},{"long_name":"Elvitigala Mawatha","short_name":"Elvitigala Mawatha","types":["route"]},{"long_name":"Colombo 05","short_name":"Colombo 05","types":["sublocality_level_1","sublocality","political"]},{"long_name":"Colombo","short_name":"Colombo","types":["locality","political"]},{"long_name":"Colombo","short_name":"Colombo","types":["administrative_area_level_2","political"]},{"long_name":"Western Province","short_name":"WP","types":["administrative_area_level_1","political"]},{"long_name":"Sri Lanka","short_name":"LK","types":["country","political"]},{"long_name":"00500","short_name":"00500","types":["postal_code"]}],"type1":"Programme/Campaign","type2":"Anti Malaria","ownership":"L","rdhs":"CB","sn":43,"field4":43,"check":0,"hin":"LCB0000430"}
{"geometry":{"location":{"lat":6.890867399999999,"lng":79.87730479999999},"viewport":{"northeast":{"lat":6.892219779892722,"lng":79.87852172989273},"southwest":{"lat":6.889520120107278,"lng":79.87582207010728}}},"name":"National Cancer Control Programme","place_id":"ChIJOQHvXJtb4joRHklPW2btTLw","addressComponents":[{"long_name":"555","short_name":"555","types":["street_number"]},{"long_name":"Elvitigala Mawatha","short_name":"Elvitigala Mawatha","types":["route"]},{"long_name":"Colombo 05","short_name":"Colombo 05","types":["sublocality_level_1","sublocality","political"]},{"long_name":"Colombo","short_name":"Colombo","types":["locality","political"]},{"long_name":"Colombo","short_name":"Colombo","types":["administrative_area_level_2","political"]},{"long_name":"Western Province","short_name":"WP","types":["administrative_area_level_1","political"]},{"long_name":"Sri Lanka","short_name":"LK","types":["country","political"]},{"long_name":"00500","short_name":"00500","types":["postal_code"]}],"type1":"Programme/Campaign","type2":"Cancer Control ","ownership":"L","rdhs":"CB","sn":44,"field4":44,"check":8,"hin":"LCB0000448"}
{"geometry":{"location":{"lat":6.8908343,"lng":79.87731169999999},"viewport":{"northeast":{"lat":6.892186729892723,"lng":79.87852482989271},"southwest":{"lat":6.889487070107279,"lng":79.87582517010728}}},"name":"National Dengue Control Unit","place_id":"ChIJgwTPqi1a4joRzk6KwRrsM7Q","addressComponents":[{"long_name":"Public Health Complex, Ministry of Health, Sri Lanka","short_name":"Public Health Complex, Ministry of Health, Sri Lanka","types":["premise"]},{"long_name":"555/5","short_name":"555/5","types":["street_number"]},{"long_name":"Elvitigala Mawatha","short_name":"Elvitigala Mawatha","types":["route"]},{"long_name":"Colombo 05","short_name":"Colombo 05","types":["sublocality_level_1","sublocality","political"]},{"long_name":"Colombo","short_name":"Colombo","types":["locality","political"]},{"long_name":"Colombo","short_name":"Colombo","types":["administrative_area_level_2","political"]},{"long_name":"Western Province","short_name":"WP","types":["administrative_area_level_1","political"]},{"long_name":"Sri Lanka","short_name":"LK","types":["country","political"]},{"long_name":"00500","short_name":"00500","types":["postal_code"]}],"type1":"Programme/Campaign","type2":"Dengue Control","ownership":"L","rdhs":"CB","sn":45,"field4":45,"check":5,"hin":"LCB0000455"}
{"name":"Epidemiological Unit","type1":"Programme/Campaign","type2":"Epidemiology","ownership":"L","rdhs":"CB","sn":46,"field4":46,"check":3,"hin":"LCB0000463"}
{"geometry":{"location":{"lat":6.9214585,"lng":79.86850969999999},"viewport":{"northeast":{"lat":6.922794729892722,"lng":79.86998742989272},"southwest":{"lat":6.920095070107278,"lng":79.86728777010728}}},"name":"Family Health Bureau","place_id":"ChIJL309nwxZ4joRIOvYoFvNDD4","addressComponents":[{"long_name":"231","short_name":"231","types":["street_number"]},{"long_name":"De Saram Place","short_name":"De Saram Pl","types":["route"]},{"long_name":"Colombo 10","short_name":"Colombo 10","types":["sublocality_level_1","sublocality","political"]},{"long_name":"Colombo","short_name":"Colombo","types":["locality","political"]},{"long_name":"Colombo","short_name":"Colombo","types":["administrative_area_level_2","political"]},{"long_name":"Western Province","short_name":"WP","types":["administrative_area_level_1","political"]},{"long_name":"Sri Lanka","short_name":"LK","types":["country","political"]},{"long_name":"01000","short_name":"01000","types":["postal_code"]}],"type1":"Programme/Campaign","type2":"Family Health","ownership":"L","rdhs":"CB","sn":47,"field4":47,"check":1,"hin":"LCB0000471"}
{"geometry":{"location":{"lat":6.8908589,"lng":79.8774015},"viewport":{"northeast":{"lat":6.892212229892722,"lng":79.87856997989273},"southwest":{"lat":6.889512570107279,"lng":79.87587032010728}}},"name":"National Programme for Tuberculosis Control & Chest Diseases","place_id":"ChIJnQTPqi1a4joR1GgC3xoG4Q0","addressComponents":[{"long_name":"Public Health Complex, Ministry of Health, Sri Lanka","short_name":"Public Health Complex, Ministry of Health, Sri Lanka","types":["premise"]},{"long_name":"555/5","short_name":"555/5","types":["street_number"]},{"long_name":"Elvitigala Mawatha","short_name":"Elvitigala Mawatha","types":["route"]},{"long_name":"Colombo 05","short_name":"Colombo 05","types":["sublocality_level_1","sublocality","political"]},{"long_name":"Colombo","short_name":"Colombo","types":["locality","political"]},{"long_name":"Colombo","short_name":"Colombo","types":["administrative_area_level_2","political"]},{"long_name":"Western Province","short_name":"WP","types":["administrative_area_level_1","political"]},{"long_name":"Sri Lanka","short_name":"LK","types":["country","political"]},{"long_name":"00500","short_name":"00500","types":["postal_code"]}],"type1":"Programme/Campaign","type2":"NPTCCD","ownership":"L","rdhs":"CB","sn":48,"field4":48,"check":9,"hin":"LCB0000489"}
{"geometry":{"location":{"lat":6.9199077,"lng":79.86580640000001},"viewport":{"northeast":{"lat":6.921146329892721,"lng":79.86724752989272},"southwest":{"lat":6.918446670107278,"lng":79.86454787010727}}},"name":"STD/AIDS Control Programme","place_id":"ChIJAzNnKw1Z4joR260SuJvqMG8","addressComponents":[{"long_name":"29","short_name":"29","types":["street_number"]},{"long_name":"De Saram Place","short_name":"De Saram Pl","types":["route"]},{"long_name":"Colombo 10","short_name":"Colombo 10","types":["sublocality_level_1","sublocality","political"]},{"long_name":"Colombo","short_name":"Colombo","types":["locality","political"]},{"long_name":"Colombo","short_name":"Colombo","types":["administrative_area_level_2","political"]},{"long_name":"Western Province","short_name":"WP","types":["administrative_area_level_1","political"]},{"long_name":"Sri Lanka","short_name":"LK","types":["country","political"]},{"long_name":"01000","short_name":"01000","types":["postal_code"]}],"type1":"Programme/Campaign","type2":"STD/AIDS Control","ownership":"L","rdhs":"CB","sn":49,"field4":49,"check":7,"hin":"LCB0000497"}
{"geometry":{"location":{"lat":6.920575,"lng":79.869185},"viewport":{"northeast":{"lat":6.921749329892722,"lng":79.87064737989272},"southwest":{"lat":6.919049670107278,"lng":79.86794772010728}}},"name":"NTS Colombo","place_id":"ChIJTVd2VgtZ4joRnU83q8K2oEA","addressComponents":[{"long_name":"EW Perera Mawatha","short_name":"EW Perera Mawatha","types":["route"]},{"long_name":"Colombo 10","short_name":"Colombo 10","types":["sublocality_level_1","sublocality","political"]},{"long_name":"Colombo","short_name":"Colombo","types":["locality","political"]},{"long_name":"Colombo","short_name":"Colombo","types":["administrative_area_level_2","political"]},{"long_name":"Western Province","short_name":"WP","types":["administrative_area_level_1","political"]},{"long_name":"Sri Lanka","short_name":"LK","types":["country","political"]},{"long_name":"01000","short_name":"01000","types":["postal_code"]}],"type1":"Training","type2":"NTS","ownership":"L","rdhs":"CB","sn":50,"field4":50,"check":5,"hin":"LCB0000505"}
{"geometry":{"location":{"lat":6.924271399999999,"lng":79.9425715},"viewport":{"northeast":{"lat":6.925698979892721,"lng":79.94398072989273},"southwest":{"lat":6.922999320107277,"lng":79.94128107010728}}},"name":"NTS Mulleriyawa","place_id":"ChIJ6QMS2RRX4joRkpKJvLKlQC4","addressComponents":[{"long_name":"WWFV+P24","short_name":"WWFV+P24","types":["plus_code"]},{"long_name":"Angoda","short_name":"Angoda","types":["locality","political"]},{"long_name":"Colombo","short_name":"Colombo","types":["administrative_area_level_2","political"]},{"long_name":"Western Province","short_name":"WP","types":["administrative_area_level_1","political"]},{"long_name":"Sri Lanka","short_name":"LK","types":["country","political"]}],"type1":"Training","type2":"NTS","ownership":"L","rdhs":"CB","sn":51,"field4":51,"check":3,"hin":"LCB0000513"}
{"geometry":{"location":{"lat":7.0405118,"lng":79.9012467},"viewport":{"northeast":{"lat":7.042287729892721,"lng":79.90258517989271},"southwest":{"lat":7.039588070107277,"lng":79.89988552010728}}},"name":"NTS Sri Jayawardanapura","place_id":"ChIJTxlLOGz34joRqhP2707G3ds","addressComponents":[{"long_name":"Kandana Hospital Road","short_name":"Kandana Hospital Road","types":["route"]},{"long_name":"Kandana","short_name":"Kandana","types":["locality","political"]},{"long_name":"Gampaha","short_name":"Gampaha","types":["administrative_area_level_2","political"]},{"long_name":"Western Province","short_name":"WP","types":["administrative_area_level_1","political"]},{"long_name":"Sri Lanka","short_name":"LK","types":["country","political"]},{"long_name":"11320","short_name":"11320","types":["postal_code"]}],"type1":"Training","type2":"NTS","ownership":"L","rdhs":"CB","sn":52,"field4":52,"check":1,"hin":"LCB0000521"}
{"geometry":{"location":{"lat":6.8713429,"lng":79.8945591},"viewport":{"northeast":{"lat":6.872692729892722,"lng":79.89590892989273},"southwest":{"lat":6.869993070107278,"lng":79.89320927010728}}},"name":"Post Base School of Nursing","place_id":"ChIJ5S_GSUJa4joR8Qfi2odGBBs","addressComponents":[{"long_name":"60","short_name":"60","types":["street_number"]},{"long_name":"Old Kesbewa Road","short_name":"Old Kesbewa Rd","types":["route"]},{"long_name":"Ethul Kotte","short_name":"Ethul Kotte","types":["sublocality_level_1","sublocality","political"]},{"long_name":"Nugegoda","short_name":"Nugegoda","types":["locality","political"]},{"long_name":"Colombo","short_name":"Colombo","types":["administrative_area_level_2","political"]},{"long_name":"Western Province","short_name":"WP","types":["administrative_area_level_1","political"]},{"long_name":"Sri Lanka","short_name":"LK","types":["country","political"]},{"long_name":"10100","short_name":"10100","types":["postal_code"]}],"type1":"Training","type2":"NTS","ownership":"L","rdhs":"CB","sn":53,"field4":53,"check":9,"hin":"LCB0000539"}
{"geometry":{"location":{"lat":6.8456052,"lng":79.9287693},"viewport":{"northeast":{"lat":6.847022279892721,"lng":79.93015992989272},"southwest":{"lat":6.844322620107278,"lng":79.92746027010728}}},"name":"Dental Therapist Training School ","place_id":"ChIJD7yUQXBQ4joRWJgE-0dnHKU","addressComponents":[{"long_name":"Avissawella Road","short_name":"Avissawella Rd","types":["route"]},{"long_name":"Maharagama","short_name":"Maharagama","types":["locality","political"]},{"long_name":"Colombo","short_name":"Colombo","types":["administrative_area_level_2","political"]},{"long_name":"Western Province","short_name":"WP","types":["administrative_area_level_1","political"]},{"long_name":"Sri Lanka","short_name":"LK","types":["country","political"]},{"long_name":"10280","short_name":"10280","types":["postal_code"]}],"type1":"Training","type2":"Training","ownership":"L","rdhs":"CB","sn":54,"field4":54,"check":7,"hin":"LCB0000547"}
{"geometry":{"location":{"lat":6.9157424,"lng":79.8688335},"viewport":{"northeast":{"lat":6.917151329892722,"lng":79.87032772989272},"southwest":{"lat":6.914451670107278,"lng":79.86762807010727}}},"name":"School of Cardiographers","place_id":"ChIJyatyqKFZ4joR6AZzaKA2FVs","addressComponents":[{"long_name":"Wijerama Mawatha","short_name":"Wijerama Mawatha","types":["route"]},{"long_name":"Cinnamon Gardens","short_name":"Cinnamon Gardens","types":["sublocality_level_1","sublocality","political"]},{"long_name":"Colombo","short_name":"Colombo","types":["locality","political"]},{"long_name":"Colombo","short_name":"Colombo","types":["administrative_area_level_2","political"]},{"long_name":"Western Province","short_name":"WP","types":["administrative_area_level_1","political"]},{"long_name":"Sri Lanka","short_name":"LK","types":["country","political"]},{"long_name":"00700","short_name":"00700","types":["postal_code"]}],"type1":"Training","type2":"Training","ownership":"L","rdhs":"CB","sn":55,"field4":55,"check":4,"hin":"LCB0000554"}
{"geometry":{"location":{"lat":6.5586402,"lng":79.9774164},"viewport":{"northeast":{"lat":6.560249829892723,"lng":79.97874422989271},"southwest":{"lat":6.557550170107279,"lng":79.97604457010728}}},"name":"School of ECG Recordists","place_id":"ChIJyf_qMDIx4joRG6RgGQPs8BU","addressComponents":[{"long_name":"HX5G+FX3","short_name":"HX5G+FX3","types":["plus_code"]},{"long_name":"Katukurunda","short_name":"Katukurunda","types":["locality","political"]},{"long_name":"Kalutara","short_name":"Kalutara","types":["administrative_area_level_2","political"]},{"long_name":"Western Province","short_name":"WP","types":["administrative_area_level_1","political"]},{"long_name":"Sri Lanka","short_name":"LK","types":["country","political"]}],"type1":"Training","type2":"Training","ownership":"L","rdhs":"CB","sn":56,"field4":56,"check":2,"hin":"LCB0000562"}
{"geometry":{"location":{"lat":6.9176347,"lng":79.8691346},"viewport":{"northeast":{"lat":6.919025229892723,"lng":79.87046917989272},"southwest":{"lat":6.916325570107279,"lng":79.86776952010727}}},"name":"School of EEG Recordists","place_id":"ChIJEXGshnRZ4joR6-fFMFIL-QQ","addressComponents":[{"long_name":"Prof. Nandadasa Kodagoda Rd","short_name":"Prof. Nandadasa Kodagoda Rd","types":["route"]},{"long_name":"Colombo","short_name":"Colombo","types":["locality","political"]},{"long_name":"Colombo","short_name":"Colombo","types":["administrative_area_level_2","political"]},{"long_name":"Western Province","short_name":"WP","types":["administrative_area_level_1","political"]},{"long_name":"Sri Lanka","short_name":"LK","types":["country","political"]},{"long_name":"01000","short_name":"01000","types":["postal_code"]}],"type1":"Training","type2":"Training","ownership":"L","rdhs":"CB","sn":57,"field4":57,"check":0,"hin":"LCB0000570"}
{"geometry":{"location":{"lat":6.5587664,"lng":79.9768162},"viewport":{"northeast":{"lat":6.560104729892721,"lng":79.97808697989272},"southwest":{"lat":6.557405070107277,"lng":79.97538732010727}}},"name":"School of Medical Laboratory ","place_id":"ChIJK8_o7vcx4joR0-0bjeYmr64","addressComponents":[{"long_name":"Nagoda Road","short_name":"Nagoda Rd","types":["route"]},{"long_name":"Kalutara","short_name":"Kalutara","types":["locality","political"]},{"long_name":"Kalutara","short_name":"Kalutara","types":["administrative_area_level_2","political"]},{"long_name":"Western Province","short_name":"WP","types":["administrative_area_level_1","political"]},{"long_name":"Sri Lanka","short_name":"LK","types":["country","political"]}],"type1":"Training","type2":"Training","ownership":"L","rdhs":"CB","sn":58,"field4":58,"check":8,"hin":"LCB0000588"}
{"geometry":{"location":{"lat":6.9178658,"lng":79.86348029999999},"viewport":{"northeast":{"lat":6.919164129892721,"lng":79.8648055298927},"southwest":{"lat":6.916464470107277,"lng":79.86210587010727}}},"name":"School of Opthalmic Technology","place_id":"ChIJpagbBQ1Z4joR1RQQdt6UpYY","addressComponents":[{"long_name":"Level 04","short_name":"Level 04","types":["subpremise"]},{"long_name":"505","short_name":"505","types":["street_number"]},{"long_name":"Union Place","short_name":"Union Pl","types":["route"]},{"long_name":"Colombo 10","short_name":"Colombo 10","types":["sublocality_level_1","sublocality","political"]},{"long_name":"Colombo","short_name":"Colombo","types":["locality","political"]},{"long_name":"Colombo","short_name":"Colombo","types":["administrative_area_level_2","political"]},{"long_name":"Western Province","short_name":"WP","types":["administrative_area_level_1","political"]},{"long_name":"Sri Lanka","short_name":"LK","types":["country","political"]},{"long_name":"02000","short_name":"02000","types":["postal_code"]}],"type1":"Training","type2":"Training","ownership":"L","rdhs":"CB","sn":59,"field4":59,"check":6,"hin":"LCB0000596"}
{"geometry":{"location":{"lat":6.920948800000001,"lng":79.8700447},"viewport":{"northeast":{"lat":6.922136229892723,"lng":79.87147352989271},"southwest":{"lat":6.919436570107278,"lng":79.86877387010728}}},"name":"School of Physiotherapy and Occupational Therapy","place_id":"ChIJqRXARgtZ4joRCm1iF0gfVus","addressComponents":[{"long_name":"No 119","short_name":"No 119","types":["street_number"]},{"long_name":"EW Perera Mawatha","short_name":"EW Perera Mawatha","types":["route"]},{"long_name":"Colombo 10","short_name":"Colombo 10","types":["sublocality_level_1","sublocality","political"]},{"long_name":"Colombo","short_name":"Colombo","types":["locality","political"]},{"long_name":"Colombo","short_name":"Colombo","types":["administrative_area_level_2","political"]},{"long_name":"Western Province","short_name":"WP","types":["administrative_area_level_1","political"]},{"long_name":"Sri Lanka","short_name":"LK","types":["country","political"]},{"long_name":"01000","short_name":"01000","types":["postal_code"]}],"type1":"Training","type2":"Training","ownership":"L","rdhs":"CB","sn":60,"field4":60,"check":4,"hin":"LCB0000604"}
{"geometry":{"location":{"lat":6.9187957,"lng":79.87080089999999},"viewport":{"northeast":{"lat":6.920190979892722,"lng":79.87219907989272},"southwest":{"lat":6.917491320107279,"lng":79.86949942010727}}},"name":"School of Radiography","place_id":"ChIJ8RgrgbpZ4joRKSw_qEyDO58","addressComponents":[{"long_name":"WV9C+G87","short_name":"WV9C+G87","types":["plus_code"]},{"long_name":"Colombo 10","short_name":"Colombo 10","types":["sublocality_level_1","sublocality","political"]},{"long_name":"Colombo","short_name":"Colombo","types":["locality","political"]},{"long_name":"Colombo","short_name":"Colombo","types":["administrative_area_level_2","political"]},{"long_name":"Western Province","short_name":"WP","types":["administrative_area_level_1","political"]},{"long_name":"Sri Lanka","short_name":"LK","types":["country","political"]},{"long_name":"01000","short_name":"01000","types":["postal_code"]}],"type1":"Training","type2":"Training","ownership":"L","rdhs":"CB","sn":61,"field4":61,"check":2,"hin":"LCB0000612"}
{"geometry":{"location":{"lat":7.0269767,"lng":79.9392933},"viewport":{"northeast":{"lat":7.028283229892722,"lng":79.94078052989272},"southwest":{"lat":7.025583570107278,"lng":79.93808087010727}}},"name":"Prison Hospital, Boosa","place_id":"ChIJlRTM4oj54joR8Ss_g_tnCVc","addressComponents":[{"long_name":"2WGQ+PH5","short_name":"2WGQ+PH5","types":["plus_code"]},{"long_name":"Ragama","short_name":"Ragama","types":["locality","political"]},{"long_name":"Gampaha","short_name":"Gampaha","types":["administrative_area_level_2","political"]},{"long_name":"Western Province","short_name":"WP","types":["administrative_area_level_1","political"]},{"long_name":"Sri Lanka","short_name":"LK","types":["country","political"]}],"type1":"Hospital","type2":"Prison","ownership":"L","rdhs":"GL","sn":1724,"field4":1724,"check":4,"hin":"LGL0017244"}
{"geometry":{"location":{"lat":6.0341625,"lng":80.21331719999999},"viewport":{"northeast":{"lat":6.035595079892722,"lng":80.21443837989271},"southwest":{"lat":6.032895420107278,"lng":80.21173872010728}}},"name":"Prison Hospital, Galle","place_id":"ChIJ91ZY77xz4ToRTb7jbIeBeP8","addressComponents":[{"long_name":"Prison Road","short_name":"Prison Rd","types":["route"]},{"long_name":"Galle","short_name":"Galle","types":["locality","political"]},{"long_name":"Galle","short_name":"Galle","types":["administrative_area_level_2","political"]},{"long_name":"Southern Province","short_name":"SP","types":["administrative_area_level_1","political"]},{"long_name":"Sri Lanka","short_name":"LK","types":["country","political"]},{"long_name":"80000","short_name":"80000","types":["postal_code"]}],"type1":"Hospital","type2":"Prison","ownership":"L","rdhs":"GL","sn":507,"field4":507,"check":4,"hin":"LGL0005074"}
{"geometry":{"location":{"lat":6.0670407,"lng":80.2261078},"viewport":{"northeast":{"lat":6.067853879892722,"lng":80.2275288298927},"southwest":{"lat":6.065154220107278,"lng":80.22482917010727}}},"name":"Karapitiya","place_id":"ChIJdd3pBu5x4ToRtQWKfBKSZy4","addressComponents":[{"long_name":"Galle","short_name":"Galle","types":["locality","political"]},{"long_name":"Karapitiya","short_name":"Karapitiya","types":["sublocality_level_1","sublocality","political"]},{"long_name":"Galle","short_name":"Galle","types":["administrative_area_level_2","political"]},{"long_name":"Southern Province","short_name":"SP","types":["administrative_area_level_1","political"]},{"long_name":"Sri Lanka","short_name":"LK","types":["country","political"]},{"long_name":"80000","short_name":"80000","types":["postal_code"]}],"type1":"Hospital","type2":"Teaching","ownership":"L","rdhs":"GL","sn":62,"field4":62,"check":0,"hin":"LGL0000620"}
{"geometry":{"location":{"lat":6.039132299999999,"lng":80.20551239999999},"viewport":{"northeast":{"lat":6.040542929892721,"lng":80.20694287989271},"southwest":{"lat":6.037843270107278,"lng":80.20424322010727}}},"name":"Mahamodara","place_id":"ChIJoevfaJRz4ToRnSTW5xLejl8","addressComponents":[{"long_name":"Mahamodara","short_name":"Mahamodara","types":["neighborhood","political"]},{"long_name":"Galle","short_name":"Galle","types":["locality","political"]},{"long_name":"Galle","short_name":"Galle","types":["administrative_area_level_2","political"]},{"long_name":"Southern Province","short_name":"SP","types":["administrative_area_level_1","political"]},{"long_name":"Sri Lanka","short_name":"LK","types":["country","political"]},{"long_name":"80000","short_name":"80000","types":["postal_code"]}],"type1":"Hospital","type2":"Teaching","ownership":"L","rdhs":"GL","sn":63,"field4":63,"check":8,"hin":"LGL0000638"}
{"geometry":{"location":{"lat":5.9937187,"lng":80.30625119999999},"viewport":{"northeast":{"lat":5.995128579892722,"lng":80.30760582989272},"southwest":{"lat":5.992428920107277,"lng":80.30490617010727}}},"name":"Ocupational Health Center, Habaraduwa","place_id":"ChIJl_oVjzxt4ToRJnIdNsLHDQU","addressComponents":[{"long_name":"X8V4+FGJ","short_name":"X8V4+FGJ","types":["plus_code"]},{"long_name":"Habaraduwa","short_name":"Habaraduwa","types":["locality","political"]},{"long_name":"Galle","short_name":"Galle","types":["administrative_area_level_2","political"]},{"long_name":"Southern Province","short_name":"SP","types":["administrative_area_level_1","political"]},{"long_name":"Sri Lanka","short_name":"LK","types":["country","political"]}],"type1":"Other","type2":"Other","ownership":"L","rdhs":"GL","sn":64,"field4":64,"check":6,"hin":"LGL0000646"}
{"geometry":{"location":{"lat":6.940996600000001,"lng":79.8435403},"viewport":{"northeast":{"lat":6.942397629892723,"lng":79.84479772989273},"southwest":{"lat":6.939697970107279,"lng":79.84209807010728}}},"name":"Port Health office, Galle","place_id":"ChIJZ80afdhY4joRsHolmFq3kNM","addressComponents":[{"long_name":"Colombo","short_name":"Colombo","types":["locality","political"]},{"long_name":"Colombo 01","short_name":"Colombo 01","types":["sublocality_level_1","sublocality","political"]},{"long_name":"Colombo","short_name":"Colombo","types":["administrative_area_level_2","political"]},{"long_name":"Western Province","short_name":"WP","types":["administrative_area_level_1","political"]},{"long_name":"Sri Lanka","short_name":"LK","types":["country","political"]}],"type1":"Other","type2":"Port","ownership":"L","rdhs":"GL","sn":65,"field4":65,"check":3,"hin":"LGL0000653"}
{"geometry":{"location":{"lat":6.037865399999999,"lng":80.2068766},"viewport":{"northeast":{"lat":6.039166379892722,"lng":80.20819407989272},"southwest":{"lat":6.036466720107278,"lng":80.20549442010727}}},"name":"NTS Galle","place_id":"ChIJ2efW0pVz4ToRyVoqN3u1DUE","addressComponents":[{"long_name":"198","short_name":"198","types":["street_number"]},{"long_name":"Colombo - Galle Main Road","short_name":"Colombo - Galle Main Rd","types":["route"]},{"long_name":"Galle","short_name":"Galle","types":["locality","political"]},{"long_name":"Galle","short_name":"Galle","types":["administrative_area_level_2","political"]},{"long_name":"Southern Province","short_name":"SP","types":["administrative_area_level_1","political"]},{"long_name":"Sri Lanka","short_name":"LK","types":["country","political"]},{"long_name":"80000","short_name":"80000","types":["postal_code"]}],"type1":"Training","type2":"NTS","ownership":"L","rdhs":"GL","sn":66,"field4":66,"check":1,"hin":"LGL0000661"}
{"geometry":{"location":{"lat":7.0410016,"lng":79.9020621},"viewport":{"northeast":{"lat":7.042535329892721,"lng":79.90309567989273},"southwest":{"lat":7.039835670107277,"lng":79.90039602010728}}},"name":"Kandana","place_id":"ChIJE50-Imz34joR2aEhsDX5BA0","addressComponents":[{"long_name":"Kandana Hospital Road","short_name":"Kandana Hospital Road","types":["route"]},{"long_name":"Ragama","short_name":"Ragama","types":["locality","political"]},{"long_name":"Gampaha","short_name":"Gampaha","types":["administrative_area_level_2","political"]},{"long_name":"Western Province","short_name":"WP","types":["administrative_area_level_1","political"]},{"long_name":"Sri Lanka","short_name":"LK","types":["country","political"]},{"long_name":"11320","short_name":"11320","types":["postal_code"]}],"type1":"Hospital","type2":"Divisional A","ownership":"L","rdhs":"GP","sn":67,"field4":67,"check":9,"hin":"LGP0000679"}
{"geometry":{"location":{"lat":7.1263346,"lng":79.8778408},"viewport":{"northeast":{"lat":7.127635079892721,"lng":79.87900227989272},"southwest":{"lat":7.124935420107278,"lng":79.87630262010728}}},"name":"Vijaya Kumaratunga Memorial Hospital","place_id":"ChIJuSpPZkzw4joR-v4OYqMmcbU","addressComponents":[{"long_name":"Negombo-Colombo Main Road","short_name":"Negombo-Colombo Main Rd","types":["route"]},{"long_name":"Seeduwa","short_name":"Seeduwa","types":["locality","political"]},{"long_name":"Gampaha","short_name":"Gampaha","types":["administrative_area_level_2","political"]},{"long_name":"Western Province","short_name":"WP","types":["administrative_area_level_1","political"]},{"long_name":"Sri Lanka","short_name":"LK","types":["country","political"]}],"type1":"Hospital","type2":"Divisional A","ownership":"L","rdhs":"GP","sn":127,"field4":127,"check":1,"hin":"LGP0001271"}
{"geometry":{"location":{"lat":6.9825173,"lng":79.8775764},"viewport":{"northeast":{"lat":6.983665929892721,"lng":79.87880202989271},"southwest":{"lat":6.980966270107277,"lng":79.87610237010726}}},"name":"Leprosy Hospital, Hendala","place_id":"ChIJk_5mdH9Y4joR2-jW1nSYgB4","addressComponents":[{"long_name":"XVMH+224","short_name":"XVMH+224","types":["plus_code"]},{"long_name":"Hekitta","short_name":"Hekitta","types":["sublocality_level_1","sublocality","political"]},{"long_name":"Wattala","short_name":"Wattala","types":["locality","political"]},{"long_name":"Gampaha","short_name":"Gampaha","types":["administrative_area_level_2","political"]},{"long_name":"Western Province","short_name":"WP","types":["administrative_area_level_1","political"]},{"long_name":"Sri Lanka","short_name":"LK","types":["country","political"]}],"type1":"Hospital","type2":"Divisional B","ownership":"L","rdhs":"GP","sn":68,"field4":68,"check":7,"hin":"LGP0000687"}
{"geometry":{"location":{"lat":6.926896699999999,"lng":79.9262961},"viewport":{"northeast":{"lat":6.928076629892722,"lng":79.92825972989272},"southwest":{"lat":6.925376970107278,"lng":79.92556007010728}}},"name":"Mental Hospital, Hendala (Kandana)","place_id":"ChIJ_esvoGZX4joRnv8xVcOgaFs","addressComponents":[{"long_name":"B231","short_name":"B231","types":["route"]},{"long_name":"Angoda","short_name":"Angoda","types":["locality","political"]},{"long_name":"Colombo","short_name":"Colombo","types":["administrative_area_level_2","political"]},{"long_name":"Western Province","short_name":"WP","types":["administrative_area_level_1","political"]},{"long_name":"Sri Lanka","short_name":"LK","types":["country","political"]}],"type1":"Hospital","type2":"Mental","ownership":"L","rdhs":"GP","sn":69,"field4":69,"check":5,"hin":"LGP0000695"}
{"geometry":{"location":{"lat":7.0269767,"lng":79.9392933},"viewport":{"northeast":{"lat":7.028283229892722,"lng":79.94078052989272},"southwest":{"lat":7.025583570107278,"lng":79.93808087010727}}},"name":"Prison Hospital, Mahara","place_id":"ChIJlRTM4oj54joR8Ss_g_tnCVc","addressComponents":[{"long_name":"2WGQ+PH5","short_name":"2WGQ+PH5","types":["plus_code"]},{"long_name":"Ragama","short_name":"Ragama","types":["locality","political"]},{"long_name":"Gampaha","short_name":"Gampaha","types":["administrative_area_level_2","political"]},{"long_name":"Western Province","short_name":"WP","types":["administrative_area_level_1","political"]},{"long_name":"Sri Lanka","short_name":"LK","types":["country","political"]}],"type1":"Hospital","type2":"Prison","ownership":"L","rdhs":"GP","sn":126,"field4":126,"check":3,"hin":"LGP0001263"}
{"geometry":{"location":{"lat":7.028621599999999,"lng":79.9242517},"viewport":{"northeast":{"lat":7.030039379892721,"lng":79.92553947989272},"southwest":{"lat":7.027339720107277,"lng":79.92283982010728}}},"name":"Colombo North (Ragama)","place_id":"ChIJ12rXf9P54joRFQ23w7qjPSs","addressComponents":[{"long_name":"Hospital Inner Road","short_name":"Hospital Inner Road","types":["route"]},{"long_name":"Ragama","short_name":"Ragama","types":["locality","political"]},{"long_name":"Gampaha","short_name":"Gampaha","types":["administrative_area_level_2","political"]},{"long_name":"Western Province","short_name":"WP","types":["administrative_area_level_1","political"]},{"long_name":"Sri Lanka","short_name":"LK","types":["country","political"]}],"type1":"Hospital","type2":"Teaching","ownership":"L","rdhs":"GP","sn":70,"field4":70,"check":3,"hin":"LGP0000703"}
{"geometry":{"location":{"lat":7.024886299999999,"lng":79.9035275},"viewport":{"northeast":{"lat":7.026238629892721,"lng":79.90470612989272},"southwest":{"lat":7.023538970107277,"lng":79.90200647010728}}},"name":"National Hospital for Respiratory Diseases, (Chest Hospital, Welisara)","place_id":"ChIJbQnBwp334joRX1Tx0xBNBKs","addressComponents":[{"long_name":"2WF3+XC2","short_name":"2WF3+XC2","types":["plus_code"]},{"long_name":"Welisara","short_name":"Welisara","types":["locality","political"]},{"long_name":"Gampaha","short_name":"Gampaha","types":["administrative_area_level_2","political"]},{"long_name":"Western Province","short_name":"WP","types":["administrative_area_level_1","political"]},{"long_name":"Sri Lanka","short_name":"LK","types":["country","political"]}],"type1":"Hospital","type2":"Teaching","ownership":"L","rdhs":"GP","sn":71,"field4":71,"check":1,"hin":"LGP0000711"}
{"geometry":{"location":{"lat":7.0229607,"lng":79.9241112},"viewport":{"northeast":{"lat":7.024464129892722,"lng":79.92554572989273},"southwest":{"lat":7.021764470107279,"lng":79.92284607010728}}},"name":"Rehabilitation Hospital, Ragama","place_id":"ChIJL69F7Sv44joRM0H2nxKaJSQ","addressComponents":[{"long_name":"2WFF+5JQ","short_name":"2WFF+5JQ","types":["plus_code"]},{"long_name":"Gampaha","short_name":"Gampaha","types":["locality","political"]},{"long_name":"Gampaha","short_name":"Gampaha","types":["administrative_area_level_2","political"]},{"long_name":"Western Province","short_name":"WP","types":["administrative_area_level_1","political"]},{"long_name":"Sri Lanka","short_name":"LK","types":["country","political"]}],"type1":"Hospital","type2":"Teaching","ownership":"L","rdhs":"GP","sn":72,"field4":72,"check":9,"hin":"LGP0000729"}
{"geometry":{"location":{"lat":7.1801552,"lng":79.8842521},"viewport":{"northeast":{"lat":7.18404475,"lng":79.88873665},"southwest":{"lat":7.16848655,"lng":79.88275725}}},"name":"Airport Health Office - Katunayake","place_id":"ChIJXS3yNbfv4joRN4uCAyFwvW4","addressComponents":[{"long_name":"Canada Friendship Rd","short_name":"Canada Friendship Rd","types":["route"]},{"long_name":"කටුනායක","short_name":"කටුනායක","types":["locality","political"]},{"long_name":"ගම්පහ","short_name":"ගම්පහ","types":["administrative_area_level_2","political"]},{"long_name":"බස්නාහිර පළාත, ශ් රී ලංකාව","short_name":"WP","types":["administrative_area_level_1","political"]},{"long_name":"Sri Lanka","short_name":"LK","types":["country","political"]},{"long_name":"11450","short_name":"11450","types":["postal_code"]}],"type1":"Other","type2":"Port","ownership":"L","rdhs":"GP","sn":73,"field4":73,"check":7,"hin":"LGP0000737"}
{"geometry":{"location":{"lat":7.0405118,"lng":79.9012467},"viewport":{"northeast":{"lat":7.042287729892721,"lng":79.90258517989271},"southwest":{"lat":7.039588070107277,"lng":79.89988552010728}}},"name":"NTS Kandana","place_id":"ChIJTxlLOGz34joRqhP2707G3ds","addressComponents":[{"long_name":"Kandana Hospital Road","short_name":"Kandana Hospital Road","types":["route"]},{"long_name":"Kandana","short_name":"Kandana","types":["locality","political"]},{"long_name":"Gampaha","short_name":"Gampaha","types":["administrative_area_level_2","political"]},{"long_name":"Western Province","short_name":"WP","types":["administrative_area_level_1","political"]},{"long_name":"Sri Lanka","short_name":"LK","types":["country","political"]},{"long_name":"11320","short_name":"11320","types":["postal_code"]}],"type1":"Training","type2":"NTS","ownership":"L","rdhs":"GP","sn":74,"field4":74,"check":5,"hin":"LGP0000745"}
{"geometry":{"location":{"lat":7.0233685,"lng":79.923424},"viewport":{"northeast":{"lat":7.024839979892722,"lng":79.92485062989272},"southwest":{"lat":7.022140320107278,"lng":79.92215097010727}}},"name":"School of Prosthatic & Othotic ","place_id":"ChIJBf_tvSv44joRF1dvOzOqF2A","addressComponents":[{"long_name":"Ragama","short_name":"Ragama","types":["locality","political"]},{"long_name":"Gampaha","short_name":"Gampaha","types":["administrative_area_level_2","political"]},{"long_name":"Western Province","short_name":"WP","types":["administrative_area_level_1","political"]},{"long_name":"Sri Lanka","short_name":"LK","types":["country","political"]}],"type1":"Training","type2":"Training","ownership":"L","rdhs":"GP","sn":75,"field4":75,"check":2,"hin":"LGP0000752"}
{"geometry":{"location":{"lat":6.1267628,"lng":81.12258179999999},"viewport":{"northeast":{"lat":6.128089679892722,"lng":81.12393542989273},"southwest":{"lat":6.125390020107278,"lng":81.12123577010728}}},"name":"Hambantota","place_id":"ChIJU4aP1QO95joRI4-wTBtPipU","addressComponents":[{"long_name":"44GF+P24","short_name":"44GF+P24","types":["plus_code"]},{"long_name":"New Street","short_name":"New Street","types":["sublocality_level_1","sublocality","political"]},{"long_name":"Hambantota","short_name":"Hambantota","types":["locality","political"]},{"long_name":"Hambantota","short_name":"Hambantota","types":["administrative_area_level_2","political"]},{"long_name":"Southern Province","short_name":"SP","types":["administrative_area_level_1","political"]},{"long_name":"Sri Lanka","short_name":"LK","types":["country","political"]}],"type1":"Hospital","type2":"District General","ownership":"L","rdhs":"HT","sn":76,"field4":76,"check":0,"hin":"LHT0000760"}
{"geometry":{"location":{"lat":6.1233095,"lng":81.1108455},"viewport":{"northeast":{"lat":6.124218879892721,"lng":81.11224747989273},"southwest":{"lat":6.121519220107277,"lng":81.10954782010728}}},"name":"NTS Hambantota","place_id":"ChIJrdQui_i85joRKpnmEVyBg9c","addressComponents":[{"long_name":"Main Street","short_name":"CGHW Highway","types":["route"]},{"long_name":"Indiwinna","short_name":"Indiwinna","types":["sublocality_level_1","sublocality","political"]},{"long_name":"Hambantota","short_name":"Hambantota","types":["locality","political"]},{"long_name":"Hambantota","short_name":"Hambantota","types":["administrative_area_level_2","political"]},{"long_name":"Southern Province","short_name":"SP","types":["administrative_area_level_1","political"]},{"long_name":"Sri Lanka","short_name":"LK","types":["country","political"]},{"long_name":"82000","short_name":"82000","types":["postal_code"]}],"type1":"Training","type2":"NTS","ownership":"L","rdhs":"HT","sn":77,"field4":77,"check":8,"hin":"LHT0000778"}
{"geometry":{"location":{"lat":9.6672998,"lng":80.0027836},"viewport":{"northeast":{"lat":9.668480329892722,"lng":80.00393122989271},"southwest":{"lat":9.665780670107278,"lng":80.00123157010727}}},"name":"Prison Hospital, Jaffna","place_id":"ChIJhT875P1T_joRcoUw7aieSdo","addressComponents":[{"long_name":"M283+W47","short_name":"M283+W47","types":["plus_code"]},{"long_name":"Jaffna","short_name":"Jaffna","types":["locality","political"]},{"long_name":"Jaffna","short_name":"Jaffna","types":["administrative_area_level_2","political"]},{"long_name":"Northern Province","short_name":"NP","types":["administrative_area_level_1","political"]},{"long_name":"Sri Lanka","short_name":"LK","types":["country","political"]}],"type1":"Hospital","type2":"Prison","ownership":"L","rdhs":"JF","sn":1725,"field4":1725,"check":1,"hin":"LJF0017251"}
{"geometry":{"location":{"lat":9.665911399999999,"lng":80.0155788},"viewport":{"northeast":{"lat":9.66684382989272,"lng":80.01714452989273},"southwest":{"lat":9.664144170107276,"lng":80.01444487010728}}},"name":"Jaffna","place_id":"ChIJERmOG4RX_joRbmDw8sr3OBE","addressComponents":[{"long_name":"Hospital Street","short_name":"Hospital St","types":["route"]},{"long_name":"Chundikuli","short_name":"Chundikuli","types":["sublocality_level_1","sublocality","political"]},{"long_name":"Jaffna","short_name":"Jaffna","types":["locality","political"]},{"long_name":"Jaffna","short_name":"Jaffna","types":["administrative_area_level_2","political"]},{"long_name":"Northern Province","short_name":"NP","types":["administrative_area_level_1","political"]},{"long_name":"Sri Lanka","short_name":"LK","types":["country","political"]},{"long_name":"40000","short_name":"40000","types":["postal_code"]}],"type1":"Hospital","type2":"Teaching","ownership":"L","rdhs":"JF","sn":78,"field4":78,"check":6,"hin":"LJF0000786"}
{"geometry":{"location":{"lat":6.8908589,"lng":79.8774015},"viewport":{"northeast":{"lat":6.892212229892722,"lng":79.87856997989273},"southwest":{"lat":6.889512570107279,"lng":79.87587032010728}}},"name":"Chest Hospital, KKS","place_id":"ChIJnQTPqi1a4joR1GgC3xoG4Q0","addressComponents":[{"long_name":"Public Health Complex, Ministry of Health, Sri Lanka","short_name":"Public Health Complex, Ministry of Health, Sri Lanka","types":["premise"]},{"long_name":"555/5","short_name":"555/5","types":["street_number"]},{"long_name":"Elvitigala Mawatha","short_name":"Elvitigala Mawatha","types":["route"]},{"long_name":"Colombo 05","short_name":"Colombo 05","types":["sublocality_level_1","sublocality","political"]},{"long_name":"Colombo","short_name":"Colombo","types":["locality","political"]},{"long_name":"Colombo","short_name":"Colombo","types":["administrative_area_level_2","political"]},{"long_name":"Western Province","short_name":"WP","types":["administrative_area_level_1","political"]},{"long_name":"Sri Lanka","short_name":"LK","types":["country","political"]},{"long_name":"00500","short_name":"00500","types":["postal_code"]}],"type1":"Programme/Campaign","type2":"NPTCCD","ownership":"L","rdhs":"JF","sn":79,"field4":79,"check":4,"hin":"LJF0000794"}
{"geometry":{"location":{"lat":9.6651385,"lng":80.0162531},"viewport":{"northeast":{"lat":9.666457379892721,"lng":80.01746742989272},"southwest":{"lat":9.663757720107277,"lng":80.01476777010728}}},"name":"NTS Jaffna","place_id":"ChIJbZZpualW_joRzL4fyU-nXxY","addressComponents":[{"long_name":"Hospital Road","short_name":"Hospital Rd","types":["route"]},{"long_name":"Chundikuli","short_name":"Chundikuli","types":["sublocality_level_1","sublocality","political"]},{"long_name":"Jaffna","short_name":"Jaffna","types":["locality","political"]},{"long_name":"Jaffna","short_name":"Jaffna","types":["administrative_area_level_2","political"]},{"long_name":"Northern Province","short_name":"NP","types":["administrative_area_level_1","political"]},{"long_name":"Sri Lanka","short_name":"LK","types":["country","political"]},{"long_name":"40000","short_name":"40000","types":["postal_code"]}],"type1":"Training","type2":"NTS","ownership":"L","rdhs":"JF","sn":80,"field4":80,"check":2,"hin":"LJF0000802"}
{"geometry":{"location":{"lat":7.2477674,"lng":80.3452533},"viewport":{"northeast":{"lat":7.249160779892721,"lng":80.34658972989271},"southwest":{"lat":7.246461120107277,"lng":80.34389007010726}}},"name":"Kegalle","place_id":"ChIJkWPzwkoR4zoRLhsU4PlahM0","addressComponents":[{"long_name":"Bandaranayaka Avenue","short_name":"Bandaranayaka Ave","types":["route"]},{"long_name":"Kegalle","short_name":"Kegalle","types":["locality","political"]},{"long_name":"Kegalle","short_name":"Kegalle","types":["administrative_area_level_2","political"]},{"long_name":"Sabaragamuwa Province","short_name":"SG","types":["administrative_area_level_1","political"]},{"long_name":"Sri Lanka","short_name":"LK","types":["country","political"]},{"long_name":"71000","short_name":"71000","types":["postal_code"]}],"type1":"Hospital","type2":"District General","ownership":"L","rdhs":"KE","sn":81,"field4":81,"check":0,"hin":"LKE0000810"}
{"geometry":{"location":{"lat":7.479121800000001,"lng":80.3591149},"viewport":{"northeast":{"lat":7.480699279892722,"lng":80.36024382989271},"southwest":{"lat":7.477999620107278,"lng":80.35754417010727}}},"name":"Kurunegala","place_id":"ChIJ--uJ7SM64zoRVZNOf-TB3Lw","addressComponents":[{"long_name":"Ambepussa - Trincomalee Highway","short_name":"Ambepussa - Trincomalee Hwy","types":["route"]},{"long_name":"Kurunegala","short_name":"Kurunegala","types":["locality","political"]},{"long_name":"Kurunegala","short_name":"Kurunegala","types":["administrative_area_level_2","political"]},{"long_name":"North Western Province","short_name":"NW","types":["administrative_area_level_1","political"]},{"long_name":"Sri Lanka","short_name":"LK","types":["country","political"]},{"long_name":"60000","short_name":"60000","types":["postal_code"]}],"type1":"Hospital","type2":"Provincial General","ownership":"L","rdhs":"KG","sn":82,"field4":82,"check":8,"hin":"LKG0000828"}
{"geometry":{"location":{"lat":7.4799785,"lng":80.3580242},"viewport":{"northeast":{"lat":7.481093129892723,"lng":80.35959957989273},"southwest":{"lat":7.478393470107279,"lng":80.35689992010728}}},"name":"NTS Kurunegala","place_id":"ChIJtWzGvCM64zoR15i7g1z10WY","addressComponents":[{"long_name":"Dickson Moters Road","short_name":"Dickson Moters Rd","types":["route"]},{"long_name":"Kurunegala","short_name":"Kurunegala","types":["locality","political"]},{"long_name":"Kurunegala","short_name":"Kurunegala","types":["administrative_area_level_2","political"]},{"long_name":"North Western Province","short_name":"NW","types":["administrative_area_level_1","political"]},{"long_name":"Sri Lanka","short_name":"LK","types":["country","political"]},{"long_name":"60000","short_name":"60000","types":["postal_code"]}],"type1":"Training","type2":"NTS","ownership":"L","rdhs":"KG","sn":83,"field4":83,"check":6,"hin":"LKG0000836"}
{"geometry":{"location":{"lat":7.2273931,"lng":81.8509146},"viewport":{"northeast":{"lat":7.228760479892721,"lng":81.85208617989272},"southwest":{"lat":7.226060820107278,"lng":81.84938652010727}}},"name":"Akkaraipattu (Elawatuwan)","place_id":"ChIJXZxwn9sS5ToRCl7eqiaSGq8","addressComponents":[{"long_name":"237","short_name":"237","types":["street_number"]},{"long_name":"Colombo - Batticaloa Highway","short_name":"Colombo - Batticaloa Hwy","types":["route"]},{"long_name":"Akkaraipattu","short_name":"Akkaraipattu","types":["locality","political"]},{"long_name":"Ampara","short_name":"Ampara","types":["administrative_area_level_2","political"]},{"long_name":"Eastern Province","short_name":"EP","types":["administrative_area_level_1","political"]},{"long_name":"Sri Lanka","short_name":"LK","types":["country","political"]}],"type1":"Hospital","type2":"Base A","ownership":"L","rdhs":"KL","sn":84,"field4":84,"check":4,"hin":"LKL0000844"}
{"geometry":{"location":{"lat":7.420034199999999,"lng":81.8223203},"viewport":{"northeast":{"lat":7.42130052989272,"lng":81.82357947989273},"southwest":{"lat":7.418600870107277,"lng":81.82087982010728}}},"name":"Kalmunai North","place_id":"ChIJAQAAjx0_5ToR46QxvUcY-2o","addressComponents":[{"long_name":"Kalmunai","short_name":"Kalmunai","types":["locality","political"]},{"long_name":"Ampara","short_name":"Ampara","types":["administrative_area_level_2","political"]},{"long_name":"Eastern Province","short_name":"EP","types":["administrative_area_level_1","political"]},{"long_name":"Sri Lanka","short_name":"LK","types":["country","political"]},{"long_name":"32300","short_name":"32300","types":["postal_code"]}],"type1":"Hospital","type2":"Base A","ownership":"L","rdhs":"KL","sn":85,"field4":85,"check":1,"hin":"LKL0000851"}
{"geometry":{"location":{"lat":7.4031723,"lng":81.8311457},"viewport":{"northeast":{"lat":7.404576329892722,"lng":81.83273067989272},"southwest":{"lat":7.401876670107278,"lng":81.83003102010728}}},"name":"Kalmunai South (Ashroff Memorial Hospital)","place_id":"ChIJAQAA-6g_5ToRPzQSarA1CUY","addressComponents":[{"long_name":"Ashraff Memorial Base Hospital","short_name":"Ashraff Memorial Base Hospital","types":["premise"]},{"long_name":"A4","short_name":"A4","types":["street_number"]},{"long_name":"A4","short_name":"A4","types":["route"]},{"long_name":"Kalmunai Kudy","short_name":"Kalmunai Kudy","types":["sublocality_level_1","sublocality","political"]},{"long_name":"Kalmunai","short_name":"Kalmunai","types":["locality","political"]},{"long_name":"Ampara","short_name":"Ampara","types":["administrative_area_level_2","political"]},{"long_name":"Eastern Province","short_name":"EP","types":["administrative_area_level_1","political"]},{"long_name":"Sri Lanka","short_name":"LK","types":["country","political"]},{"long_name":"32300","short_name":"32300","types":["postal_code"]}],"type1":"Hospital","type2":"Base A","ownership":"L","rdhs":"KL","sn":86,"field4":86,"check":9,"hin":"LKL0000869"}
{"geometry":{"location":{"lat":6.9187429,"lng":79.86899199999999},"viewport":{"northeast":{"lat":6.923231599999998,"lng":79.87599315},"southwest":{"lat":6.915603600000001,"lng":79.86103255000002}}},"name":"Jayapuram","place_id":"ChIJg7wru3RZ4joRKPRVduTotu4","addressComponents":[{"long_name":"WV99+FHX","short_name":"WV99+FHX","types":["plus_code"]},{"long_name":"Colombo 10","short_name":"Colombo 10","types":["sublocality_level_1","sublocality","political"]},{"long_name":"Colombo","short_name":"Colombo","types":["locality","political"]},{"long_name":"Colombo","short_name":"Colombo","types":["administrative_area_level_2","political"]},{"long_name":"Western Province","short_name":"WP","types":["administrative_area_level_1","political"]},{"long_name":"Sri Lanka","short_name":"LK","types":["country","political"]},{"long_name":"00700","short_name":"00700","types":["postal_code"]}],"type1":"Hospital","type2":"PMCU","ownership":"L","rdhs":"KN","sn":87,"field4":87,"check":7,"hin":"LKN0000877"}
{"geometry":{"location":{"lat":6.472087399999999,"lng":79.9834916},"viewport":{"northeast":{"lat":6.473375829892722,"lng":79.98500337989273},"southwest":{"lat":6.470676170107278,"lng":79.98230372010728}}},"name":"Beruwala","place_id":"ChIJQ36RtCMu4joRPQ27ilZSFKM","addressComponents":[{"long_name":"FXCM+R9Q","short_name":"FXCM+R9Q","types":["plus_code"]},{"long_name":"Beruwala","short_name":"Beruwala","types":["locality","political"]},{"long_name":"Kalutara","short_name":"Kalutara","types":["administrative_area_level_2","political"]},{"long_name":"Western Province","short_name":"WP","types":["administrative_area_level_1","political"]},{"long_name":"Sri Lanka","short_name":"LK","types":["country","political"]}],"type1":"Hospital","type2":"Base B","ownership":"L","rdhs":"KT","sn":88,"field4":88,"check":5,"hin":"LKT0000885"}
{"geometry":{"location":{"lat":6.5632277,"lng":79.9852609},"viewport":{"northeast":{"lat":6.564579479892722,"lng":79.98663782989271},"southwest":{"lat":6.561879820107278,"lng":79.98393817010727}}},"name":"Kalutara","place_id":"ChIJfUSXNDUx4joRs4HXgna0_dU","addressComponents":[{"long_name":"Kalutara-Matugama Road","short_name":"Kalutara-Matugama Rd","types":["route"]},{"long_name":"Nagoda","short_name":"Nagoda","types":["sublocality_level_1","sublocality","political"]},{"long_name":"Kalutara","short_name":"Kalutara","types":["administrative_area_level_2","political"]},{"long_name":"Western Province","short_name":"WP","types":["administrative_area_level_1","political"]},{"long_name":"Sri Lanka","short_name":"LK","types":["country","political"]}],"type1":"Hospital","type2":"District General","ownership":"L","rdhs":"KT","sn":89,"field4":89,"check":3,"hin":"LKT0000893"}
{"geometry":{"location":{"lat":6.4421816,"lng":80.0180807},"viewport":{"northeast":{"lat":6.443648379892721,"lng":80.01928307989272},"southwest":{"lat":6.440948720107277,"lng":80.01658342010728}}},"name":"Aluthgamweediya (Darga Town)","place_id":"ChIJ29rPJNIt4joRiRsDRuYH1NE","addressComponents":[{"long_name":"C2R9+V6G","short_name":"C2R9+V6G","types":["plus_code"]},{"long_name":"Dharga Town","short_name":"Dharga Town","types":["locality","political"]},{"long_name":"Kalutara","short_name":"Kalutara","types":["administrative_area_level_2","political"]},{"long_name":"Western Province","short_name":"WP","types":["administrative_area_level_1","political"]},{"long_name":"Sri Lanka","short_name":"LK","types":["country","political"]}],"type1":"Hospital","type2":"Divisional B","ownership":"L","rdhs":"KT","sn":90,"field4":90,"check":1,"hin":"LKT0000901"}
{"geometry":{"location":{"lat":6.4341104,"lng":79.99765699999999},"viewport":{"northeast":{"lat":6.435439279892721,"lng":79.99896702989273},"southwest":{"lat":6.432739620107277,"lng":79.99626737010728}}},"name":"Aluthgama","place_id":"ChIJGdkC1_Iv4joR1NmYyKZgLj4","addressComponents":[{"long_name":"Galle Road","short_name":"Galle Rd","types":["route"]},{"long_name":"Aluthgama","short_name":"Aluthgama","types":["locality","political"]},{"long_name":"Kalutara","short_name":"Kalutara","types":["administrative_area_level_2","political"]},{"long_name":"Western Province","short_name":"WP","types":["administrative_area_level_1","political"]},{"long_name":"Sri Lanka","short_name":"LK","types":["country","political"]},{"long_name":"12080","short_name":"12080","types":["postal_code"]}],"type1":"Hospital","type2":"Divisional C","ownership":"L","rdhs":"KT","sn":91,"field4":91,"check":9,"hin":"LKT0000919"}
{"geometry":{"location":{"lat":6.610791499999999,"lng":79.97462519999999},"viewport":{"northeast":{"lat":6.611714329892722,"lng":79.97590252989272},"southwest":{"lat":6.609014670107278,"lng":79.97320287010727}}},"name":"Prison Hospital, Kaluthara","place_id":"ChIJdQtBrlA24joR4Hq2GTGcqUk","addressComponents":[{"long_name":"Prison Road","short_name":"Prison Rd","types":["route"]},{"long_name":"Waskaduwa","short_name":"Waskaduwa","types":["sublocality_level_1","sublocality","political"]},{"long_name":"Wadduwa","short_name":"Wadduwa","types":["locality","political"]},{"long_name":"Kalutara","short_name":"Kalutara","types":["administrative_area_level_2","political"]},{"long_name":"Western Province","short_name":"WP","types":["administrative_area_level_1","political"]},{"long_name":"Sri Lanka","short_name":"LK","types":["country","political"]}],"type1":"Hospital","type2":"Prison","ownership":"L","rdhs":"KT","sn":1723,"field4":1723,"check":6,"hin":"LKT0017236"}
{"geometry":{"location":{"lat":6.437559,"lng":79.9993559},"viewport":{"northeast":{"lat":6.438946779892722,"lng":80.00077562989271},"southwest":{"lat":6.436247120107279,"lng":79.99807597010728}}},"name":"Beruwala","place_id":"ChIJ74wcZH0u4joROgsTW6aA-mM","addressComponents":[{"long_name":"CXQX+2PH","short_name":"CXQX+2PH","types":["plus_code"]},{"long_name":"Aluthgama","short_name":"Aluthgama","types":["locality","political"]},{"long_name":"Kalutara","short_name":"Kalutara","types":["administrative_area_level_2","political"]},{"long_name":"Western Province","short_name":"WP","types":["administrative_area_level_1","political"]},{"long_name":"Sri Lanka","short_name":"LK","types":["country","political"]}],"type1":"MOH Office","type2":"MOH","ownership":"L","rdhs":"KT","sn":92,"field4":92,"check":7,"hin":"LKT0000927"}
{"geometry":{"location":{"lat":6.713046400000001,"lng":80.06792639999999},"viewport":{"northeast":{"lat":6.714458629892723,"lng":80.06929227989271},"southwest":{"lat":6.71175897010728,"lng":80.06659262010727}}},"name":"Kalutara","place_id":"ChIJW5sLfmtL4joRrL8usIP6ZT8","addressComponents":[{"long_name":"P379+657","short_name":"P379+657","types":["plus_code"]},{"long_name":"Horana","short_name":"Horana","types":["locality","political"]},{"long_name":"Kalutara","short_name":"Kalutara","types":["administrative_area_level_2","political"]},{"long_name":"Western Province","short_name":"WP","types":["administrative_area_level_1","political"]},{"long_name":"Sri Lanka","short_name":"LK","types":["country","political"]}],"type1":"MOH Office","type2":"MOH","ownership":"L","rdhs":"KT","sn":93,"field4":93,"check":5,"hin":"LKT0000935"}
{"geometry":{"location":{"lat":6.5586402,"lng":79.9774164},"viewport":{"northeast":{"lat":6.560249829892723,"lng":79.97874422989271},"southwest":{"lat":6.557550170107279,"lng":79.97604457010728}}},"name":"Food Laboratory - NIHS","place_id":"ChIJyf_qMDIx4joRG6RgGQPs8BU","addressComponents":[{"long_name":"HX5G+FX3","short_name":"HX5G+FX3","types":["plus_code"]},{"long_name":"Katukurunda","short_name":"Katukurunda","types":["locality","political"]},{"long_name":"Kalutara","short_name":"Kalutara","types":["administrative_area_level_2","political"]},{"long_name":"Western Province","short_name":"WP","types":["administrative_area_level_1","political"]},{"long_name":"Sri Lanka","short_name":"LK","types":["country","political"]}],"type1":"Other","type2":"Laboratory","ownership":"L","rdhs":"KT","sn":94,"field4":94,"check":3,"hin":"LKT0000943"}
{"geometry":{"location":{"lat":6.5587664,"lng":79.9768162},"viewport":{"northeast":{"lat":6.560104729892721,"lng":79.97808697989272},"southwest":{"lat":6.557405070107277,"lng":79.97538732010727}}},"name":"School of MLTT","place_id":"ChIJK8_o7vcx4joR0-0bjeYmr64","addressComponents":[{"long_name":"Nagoda Road","short_name":"Nagoda Rd","types":["route"]},{"long_name":"Kalutara","short_name":"Kalutara","types":["locality","political"]},{"long_name":"Kalutara","short_name":"Kalutara","types":["administrative_area_level_2","political"]},{"long_name":"Western Province","short_name":"WP","types":["administrative_area_level_1","political"]},{"long_name":"Sri Lanka","short_name":"LK","types":["country","political"]}],"type1":"Training","type2":"MLTT","ownership":"L","rdhs":"KT","sn":95,"field4":95,"check":0,"hin":"LKT0000950"}
{"geometry":{"location":{"lat":6.5586402,"lng":79.9774164},"viewport":{"northeast":{"lat":6.560249829892723,"lng":79.97874422989271},"southwest":{"lat":6.557550170107279,"lng":79.97604457010728}}},"name":"National Institute of Health Sciences","place_id":"ChIJyf_qMDIx4joRG6RgGQPs8BU","addressComponents":[{"long_name":"HX5G+FX3","short_name":"HX5G+FX3","types":["plus_code"]},{"long_name":"Katukurunda","short_name":"Katukurunda","types":["locality","political"]},{"long_name":"Kalutara","short_name":"Kalutara","types":["administrative_area_level_2","political"]},{"long_name":"Western Province","short_name":"WP","types":["administrative_area_level_1","political"]},{"long_name":"Sri Lanka","short_name":"LK","types":["country","political"]}],"type1":"Training","type2":"NIHS","ownership":"L","rdhs":"KT","sn":96,"field4":96,"check":8,"hin":"LKT0000968"}
{"geometry":{"location":{"lat":6.557639,"lng":79.9766155},"viewport":{"northeast":{"lat":6.559083829892724,"lng":79.97797887989273},"southwest":{"lat":6.55638417010728,"lng":79.97527922010728}}},"name":"NTS Kalutara","place_id":"ChIJaVBG9TEx4joRYSNIKJ1yuuE","addressComponents":[{"long_name":"HX5G+3J5","short_name":"HX5G+3J5","types":["plus_code"]},{"long_name":"Nagoda","short_name":"Nagoda","types":["locality","political"]},{"long_name":"Galle","short_name":"Galle","types":["administrative_area_level_2","political"]},{"long_name":"Southern Province","short_name":"SP","types":["administrative_area_level_1","political"]},{"long_name":"Sri Lanka","short_name":"LK","types":["country","political"]}],"type1":"Training","type2":"NTS","ownership":"L","rdhs":"KT","sn":97,"field4":97,"check":6,"hin":"LKT0000976"}
{"geometry":{"location":{"lat":7.156138599999999,"lng":80.5650555},"viewport":{"northeast":{"lat":7.157488179892723,"lng":80.56640452989274},